[
  {
    "city_id": "1796236",
    "name": "Shanghai",
    "country": "CN",
    "lat": 31.22222,
    "lon": 121.45806,
    "population": 24874500
  },
  {
    "city_id": "1816670",
    "name": "Beijing",
    "country": "CN",
    "lat": 39.9075,
    "lon": 116.39723,
    "population": 18960744
  },
  {
    "city_id": "1795565",
    "name": "Shenzhen",
    "country": "CN",
    "lat": 22.54554,
    "lon": 114.0683,
    "population": 17494398
  },
  {
    "city_id": "1809858",
    "name": "Guangzhou",
    "country": "CN",
    "lat": 23.11667,
    "lon": 113.25,
    "population": 16096724
  },
  {
    "city_id": "2314302",
    "name": "Kinshasa",
    "country": "CD",
    "lat": -4.32758,
    "lon": 15.31357,
    "population": 16000000
  },
  {
    "city_id": "745044",
    "name": "Istanbul",
    "country": "TR",
    "lat": 41.01384,
    "lon": 28.94966,
    "population": 15701602
  },
  {
    "city_id": "2332459",
    "name": "Lagos",
    "country": "NG",
    "lat": 6.45407,
    "lon": 3.39467,
    "population": 15388000
  },
  {
    "city_id": "1566083",
    "name": "Ho Chi Minh City",
    "country": "VN",
    "lat": 10.82302,
    "lon": 106.62965,
    "population": 14002598
  },
  {
    "city_id": "1815286",
    "name": "Chengdu",
    "country": "CN",
    "lat": 30.66667,
    "lon": 104.06667,
    "population": 13568357
  },
  {
    "city_id": "1172451",
    "name": "Lahore",
    "country": "PK",
    "lat": 31.558,
    "lon": 74.35071,
    "population": 13004135
  },
  {
    "city_id": "1275339",
    "name": "Mumbai",
    "country": "IN",
    "lat": 19.07283,
    "lon": 72.88261,
    "population": 12691836
  },
  {
    "city_id": "3448439",
    "name": "S\u00e3o Paulo",
    "country": "BR",
    "lat": -23.5475,
    "lon": -46.63611,
    "population": 12400232
  },
  {
    "city_id": "3530597",
    "name": "Mexico City",
    "country": "MX",
    "lat": 19.42847,
    "lon": -99.12766,
    "population": 12294193
  },
  {
    "city_id": "1174872",
    "name": "Karachi",
    "country": "PK",
    "lat": 24.8608,
    "lon": 67.0104,
    "population": 11624219
  },
  {
    "city_id": "1792947",
    "name": "Tianjin",
    "country": "CN",
    "lat": 39.14222,
    "lon": 117.17667,
    "population": 11090314
  },
  {
    "city_id": "1273294",
    "name": "Delhi",
    "country": "IN",
    "lat": 28.65195,
    "lon": 77.23149,
    "population": 11034555
  },
  {
    "city_id": "1791247",
    "name": "Wuhan",
    "country": "CN",
    "lat": 30.58333,
    "lon": 114.26667,
    "population": 10392693
  },
  {
    "city_id": "524901",
    "name": "Moscow",
    "country": "RU",
    "lat": 55.75204,
    "lon": 37.61781,
    "population": 10381222
  },
  {
    "city_id": "1185241",
    "name": "Dhaka",
    "country": "BD",
    "lat": 23.7104,
    "lon": 90.40744,
    "population": 10356500
  },
  {
    "city_id": "1835848",
    "name": "Seoul",
    "country": "KR",
    "lat": 37.566,
    "lon": 126.9784,
    "population": 10349312
  },
  {
    "city_id": "1850147",
    "name": "Tokyo",
    "country": "JP",
    "lat": 35.6895,
    "lon": 139.69171,
    "population": 9733276
  },
  {
    "city_id": "1812545",
    "name": "Dongguan",
    "country": "CN",
    "lat": 23.01797,
    "lon": 113.74866,
    "population": 9644871
  },
  {
    "city_id": "360630",
    "name": "Cairo",
    "country": "EG",
    "lat": 30.06263,
    "lon": 31.24967,
    "population": 9606916
  },
  {
    "city_id": "1790630",
    "name": "Xi\u2019an",
    "country": "CN",
    "lat": 34.25833,
    "lon": 108.92861,
    "population": 9600000
  },
  {
    "city_id": "993800",
    "name": "Johannesburg",
    "country": "ZA",
    "lat": -26.20227,
    "lon": 28.04363,
    "population": 9418183
  },
  {
    "city_id": "1799962",
    "name": "Nanjing",
    "country": "CN",
    "lat": 32.06167,
    "lon": 118.77778,
    "population": 9314685
  },
  {
    "city_id": "1808926",
    "name": "Hangzhou",
    "country": "CN",
    "lat": 30.29365,
    "lon": 120.16142,
    "population": 9236032
  },
  {
    "city_id": "1811103",
    "name": "Foshan",
    "country": "CN",
    "lat": 23.02677,
    "lon": 113.13148,
    "population": 9042509
  },
  {
    "city_id": "2643743",
    "name": "London",
    "country": "GB",
    "lat": 51.50853,
    "lon": -0.12574,
    "population": 8961989
  },
  {
    "city_id": "5128581",
    "name": "New York City",
    "country": "US",
    "lat": 40.71427,
    "lon": -74.00597,
    "population": 8804190
  },
  {
    "city_id": "1642911",
    "name": "Jakarta",
    "country": "ID",
    "lat": -6.21462,
    "lon": 106.84513,
    "population": 8540121
  },
  {
    "city_id": "1277333",
    "name": "Bengaluru",
    "country": "IN",
    "lat": 12.97194,
    "lon": 77.59369,
    "population": 8495492
  },
  {
    "city_id": "1581130",
    "name": "Hanoi",
    "country": "VN",
    "lat": 21.0245,
    "lon": 105.84117,
    "population": 8053663
  },
  {
    "city_id": "1668341",
    "name": "Taipei",
    "country": "TW",
    "lat": 25.05306,
    "lon": 121.52639,
    "population": 7871900
  },
  {
    "city_id": "3936456",
    "name": "Lima",
    "country": "PE",
    "lat": -12.04318,
    "lon": -77.02824,
    "population": 7737002
  },
  {
    "city_id": "3688689",
    "name": "Bogot\u00e1",
    "country": "CO",
    "lat": 4.60971,
    "lon": -74.08175,
    "population": 7674366
  },
  {
    "city_id": "1814906",
    "name": "Chongqing",
    "country": "CN",
    "lat": 29.56026,
    "lon": 106.55771,
    "population": 7457599
  },
  {
    "city_id": "1819729",
    "name": "Hong Kong",
    "country": "HK",
    "lat": 22.27832,
    "lon": 114.17469,
    "population": 7396076
  },
  {
    "city_id": "98182",
    "name": "Baghdad",
    "country": "IQ",
    "lat": 33.34058,
    "lon": 44.40088,
    "population": 7216000
  },
  {
    "city_id": "1790842",
    "name": "Wuzhong",
    "country": "CN",
    "lat": 37.9867,
    "lon": 106.201,
    "population": 7202654
  },
  {
    "city_id": "1797929",
    "name": "Qingdao",
    "country": "CN",
    "lat": 36.06488,
    "lon": 120.38042,
    "population": 7172451
  },
  {
    "city_id": "112931",
    "name": "Tehran",
    "country": "IR",
    "lat": 35.69439,
    "lon": 51.42151,
    "population": 7153309
  },
  {
    "city_id": "2034937",
    "name": "Shenyang",
    "country": "CN",
    "lat": 41.79222,
    "lon": 123.43278,
    "population": 7050000
  },
  {
    "city_id": "1269843",
    "name": "Hyderabad",
    "country": "IN",
    "lat": 17.38405,
    "lon": 78.45636,
    "population": 6993262
  },
  {
    "city_id": "3451190",
    "name": "Rio de Janeiro",
    "country": "BR",
    "lat": -22.90642,
    "lon": -43.18223,
    "population": 6747815
  },
  {
    "city_id": "1886760",
    "name": "Suzhou",
    "country": "CN",
    "lat": 31.30408,
    "lon": 120.59538,
    "population": 6715559
  },
  {
    "city_id": "1279233",
    "name": "Ahmedabad",
    "country": "IN",
    "lat": 23.02579,
    "lon": 72.58727,
    "population": 6357693
  },
  {
    "city_id": "2293538",
    "name": "Abidjan",
    "country": "CI",
    "lat": 5.35444,
    "lon": -4.00167,
    "population": 6321017
  },
  {
    "city_id": "1798524",
    "name": "Pudong",
    "country": "CN",
    "lat": 31.23995,
    "lon": 121.50094,
    "population": 5681512
  },
  {
    "city_id": "1880252",
    "name": "Singapore",
    "country": "SG",
    "lat": 1.28967,
    "lon": 103.85007,
    "population": 5638700
  },
  {
    "city_id": "2147714",
    "name": "Sydney",
    "country": "AU",
    "lat": -33.86785,
    "lon": 151.20732,
    "population": 5557233
  },
  {
    "city_id": "160263",
    "name": "Dar es Salaam",
    "country": "TZ",
    "lat": -6.82349,
    "lon": 39.26951,
    "population": 5383728
  },
  {
    "city_id": "498817",
    "name": "Saint Petersburg",
    "country": "RU",
    "lat": 59.93863,
    "lon": 30.31413,
    "population": 5351935
  },
  {
    "city_id": "2158177",
    "name": "Melbourne",
    "country": "AU",
    "lat": -37.814,
    "lon": 144.96332,
    "population": 5350705
  },
  {
    "city_id": "361058",
    "name": "Alexandria",
    "country": "EG",
    "lat": 31.20176,
    "lon": 29.91582,
    "population": 5263542
  },
  {
    "city_id": "2037013",
    "name": "Harbin",
    "country": "CN",
    "lat": 45.75,
    "lon": 126.65,
    "population": 5242897
  },
  {
    "city_id": "1609350",
    "name": "Bangkok",
    "country": "TH",
    "lat": 13.75398,
    "lon": 100.50144,
    "population": 5104476
  },
  {
    "city_id": "1808722",
    "name": "Hefei",
    "country": "CN",
    "lat": 31.86389,
    "lon": 117.28083,
    "population": 5050000
  },
  {
    "city_id": "1814087",
    "name": "Dalian",
    "country": "CN",
    "lat": 38.91222,
    "lon": 121.60222,
    "population": 4913879
  },
  {
    "city_id": "2335204",
    "name": "Kano",
    "country": "NG",
    "lat": 12.00012,
    "lon": 8.51672,
    "population": 4910000
  },
  {
    "city_id": "3871336",
    "name": "Santiago",
    "country": "CL",
    "lat": -33.45694,
    "lon": -70.64827,
    "population": 4837295
  },
  {
    "city_id": "3369157",
    "name": "Cape Town",
    "country": "ZA",
    "lat": -33.92584,
    "lon": 18.42322,
    "population": 4772846
  },
  {
    "city_id": "1168197",
    "name": "Peshawar",
    "country": "PK",
    "lat": 34.008,
    "lon": 71.57849,
    "population": 4758762
  },
  {
    "city_id": "2038180",
    "name": "Changchun",
    "country": "CN",
    "lat": 43.88,
    "lon": 125.32278,
    "population": 4714996
  },
  {
    "city_id": "105343",
    "name": "Jeddah",
    "country": "SA",
    "lat": 21.49012,
    "lon": 39.18624,
    "population": 4697000
  },
  {
    "city_id": "1264527",
    "name": "Chennai",
    "country": "IN",
    "lat": 13.08784,
    "lon": 80.27847,
    "population": 4681087
  },
  {
    "city_id": "1275004",
    "name": "Kolkata",
    "country": "IN",
    "lat": 22.56263,
    "lon": 88.36304,
    "population": 4631392
  },
  {
    "city_id": "1790645",
    "name": "Xiamen",
    "country": "CN",
    "lat": 24.47979,
    "lon": 118.08187,
    "population": 4617251
  },
  {
    "city_id": "1255364",
    "name": "Surat",
    "country": "IN",
    "lat": 21.19594,
    "lon": 72.83023,
    "population": 4591246
  },
  {
    "city_id": "1298824",
    "name": "Yangon",
    "country": "MM",
    "lat": 16.80528,
    "lon": 96.15611,
    "population": 4477638
  },
  {
    "city_id": "13308620",
    "name": "Bao'an",
    "country": "CN",
    "lat": 22.55213,
    "lon": 113.88288,
    "population": 4476554
  },
  {
    "city_id": "1138958",
    "name": "Kabul",
    "country": "AF",
    "lat": 34.52813,
    "lon": 69.17233,
    "population": 4434550
  },
  {
    "city_id": "184745",
    "name": "Nairobi",
    "country": "KE",
    "lat": -1.28333,
    "lon": 36.81667,
    "population": 4397073
  },
  {
    "city_id": "1790923",
    "name": "Wuxi",
    "country": "CN",
    "lat": 31.56887,
    "lon": 120.28857,
    "population": 4396835
  },
  {
    "city_id": "360995",
    "name": "Giza",
    "country": "EG",
    "lat": 30.00944,
    "lon": 31.20861,
    "population": 4367343
  },
  {
    "city_id": "1805753",
    "name": "Jinan",
    "country": "CN",
    "lat": 36.66833,
    "lon": 116.99722,
    "population": 4335989
  },
  {
    "city_id": "1793511",
    "name": "Taiyuan",
    "country": "CN",
    "lat": 37.86944,
    "lon": 112.56028,
    "population": 4303673
  },
  {
    "city_id": "1784658",
    "name": "Zhengzhou",
    "country": "CN",
    "lat": 34.75778,
    "lon": 113.64861,
    "population": 4253913
  },
  {
    "city_id": "2460596",
    "name": "Bamako",
    "country": "ML",
    "lat": 12.60915,
    "lon": -7.97522,
    "population": 4227569
  },
  {
    "city_id": "108410",
    "name": "Riyadh",
    "country": "SA",
    "lat": 24.68773,
    "lon": 46.72185,
    "population": 4205961
  },
  {
    "city_id": "12908892",
    "name": "New Taipei City",
    "country": "TW",
    "lat": 25.06199,
    "lon": 121.45703,
    "population": 4004367
  },
  {
    "city_id": "12747063",
    "name": "New Territories",
    "country": "HK",
    "lat": 22.42441,
    "lon": 114.11095,
    "population": 3984077
  },
  {
    "city_id": "1795270",
    "name": "Shijiazhuang",
    "country": "CN",
    "lat": 38.04139,
    "lon": 114.47861,
    "population": 3938513
  },
  {
    "city_id": "1205733",
    "name": "Chattogram",
    "country": "BD",
    "lat": 22.3384,
    "lon": 91.83168,
    "population": 3920222
  },
  {
    "city_id": "344979",
    "name": "Addis Ababa",
    "country": "ET",
    "lat": 9.02497,
    "lon": 38.74689,
    "population": 3860000
  },
  {
    "city_id": "1804651",
    "name": "Kunming",
    "country": "CN",
    "lat": 25.03889,
    "lon": 102.71833,
    "population": 3855346
  },
  {
    "city_id": "6986104",
    "name": "Zhongshan",
    "country": "CN",
    "lat": 22.52306,
    "lon": 113.37912,
    "population": 3841873
  },
  {
    "city_id": "1799869",
    "name": "Nanning",
    "country": "CN",
    "lat": 22.81667,
    "lon": 108.31667,
    "population": 3839800
  },
  {
    "city_id": "1795940",
    "name": "Shantou",
    "country": "CN",
    "lat": 23.35489,
    "lon": 116.67876,
    "population": 3838900
  },
  {
    "city_id": "5368361",
    "name": "Los Angeles",
    "country": "US",
    "lat": 34.05223,
    "lon": -118.24368,
    "population": 3820914
  },
  {
    "city_id": "1179400",
    "name": "Faisalabad",
    "country": "PK",
    "lat": 31.41554,
    "lon": 73.08969,
    "population": 3800193
  },
  {
    "city_id": "292223",
    "name": "Dubai",
    "country": "AE",
    "lat": 25.07725,
    "lon": 55.30927,
    "population": 3790000
  },
  {
    "city_id": "1848354",
    "name": "Yokohama",
    "country": "JP",
    "lat": 35.43333,
    "lon": 139.65,
    "population": 3777491
  },
  {
    "city_id": "1810821",
    "name": "Fuzhou",
    "country": "CN",
    "lat": 26.06139,
    "lon": 119.30611,
    "population": 3740000
  },
  {
    "city_id": "1799397",
    "name": "Ningbo",
    "country": "CN",
    "lat": 29.87819,
    "lon": 121.54945,
    "population": 3731203
  },
  {
    "city_id": "2553604",
    "name": "Casablanca",
    "country": "MA",
    "lat": 33.58831,
    "lon": -7.61138,
    "population": 3665954
  },
  {
    "city_id": "2339354",
    "name": "Ibadan",
    "country": "NG",
    "lat": 7.37756,
    "lon": 3.90591,
    "population": 3649000
  },
  {
    "city_id": "1798425",
    "name": "Puyang",
    "country": "CN",
    "lat": 29.45679,
    "lon": 119.88872,
    "population": 3590000
  },
  {
    "city_id": "323786",
    "name": "Ankara",
    "country": "TR",
    "lat": 39.91987,
    "lon": 32.85427,
    "population": 3517182
  },
  {
    "city_id": "1794903",
    "name": "Shiyan",
    "country": "CN",
    "lat": 32.6475,
    "lon": 110.77806,
    "population": 3460000
  },
  {
    "city_id": "2950159",
    "name": "Berlin",
    "country": "DE",
    "lat": 52.52437,
    "lon": 13.41053,
    "population": 3426354
  },
  {
    "city_id": "1793346",
    "name": "Tangshan",
    "country": "CN",
    "lat": 39.64381,
    "lon": 118.18319,
    "population": 3372102
  },
  {
    "city_id": "1166993",
    "name": "Rawalpindi",
    "country": "PK",
    "lat": 33.59733,
    "lon": 73.0479,
    "population": 3357612
  },
  {
    "city_id": "13512505",
    "name": "L\u00fcliang",
    "country": "CN",
    "lat": 37.5192,
    "lon": 111.14436,
    "population": 3346500
  },
  {
    "city_id": "1838524",
    "name": "Busan",
    "country": "KR",
    "lat": 35.10168,
    "lon": 129.03004,
    "population": 3343903
  },
  {
    "city_id": "1007311",
    "name": "Durban",
    "country": "ZA",
    "lat": -29.8579,
    "lon": 31.0292,
    "population": 3338026
  },
  {
    "city_id": "1815456",
    "name": "Changzhou",
    "country": "CN",
    "lat": 31.77359,
    "lon": 119.95401,
    "population": 3290918
  },
  {
    "city_id": "3117735",
    "name": "Madrid",
    "country": "ES",
    "lat": 40.4165,
    "lon": -3.70256,
    "population": 3255944
  },
  {
    "city_id": "1871859",
    "name": "Pyongyang",
    "country": "KP",
    "lat": 39.03385,
    "lon": 125.75432,
    "population": 3222000
  },
  {
    "city_id": "1785286",
    "name": "Zibo",
    "country": "CN",
    "lat": 36.79056,
    "lon": 118.06333,
    "population": 3129228
  },
  {
    "city_id": "1259229",
    "name": "Pune",
    "country": "IN",
    "lat": 18.51957,
    "lon": 73.85535,
    "population": 3124458
  },
  {
    "city_id": "750269",
    "name": "Bursa",
    "country": "TR",
    "lat": 40.19559,
    "lon": 29.06013,
    "population": 3101833
  },
  {
    "city_id": "1815577",
    "name": "Changsha",
    "country": "CN",
    "lat": 28.19874,
    "lon": 112.97087,
    "population": 3093980
  },
  {
    "city_id": "1692192",
    "name": "Quezon City",
    "country": "PH",
    "lat": 14.6488,
    "lon": 121.0509,
    "population": 3084270
  },
  {
    "city_id": "1269515",
    "name": "Jaipur",
    "country": "IN",
    "lat": 26.91962,
    "lon": 75.78781,
    "population": 3046163
  },
  {
    "city_id": "1843564",
    "name": "Incheon",
    "country": "KR",
    "lat": 37.45646,
    "lon": 126.70515,
    "population": 3039450
  },
  {
    "city_id": "1809461",
    "name": "Guiyang",
    "country": "CN",
    "lat": 26.58333,
    "lon": 106.71667,
    "population": 3037159
  },
  {
    "city_id": "1529102",
    "name": "\u00dcr\u00fcmqi",
    "country": "CN",
    "lat": 43.80096,
    "lon": 87.60046,
    "population": 3029372
  },
  {
    "city_id": "1804430",
    "name": "Lanzhou",
    "country": "CN",
    "lat": 36.05701,
    "lon": 103.83987,
    "population": 3000000
  },
  {
    "city_id": "3646738",
    "name": "Caracas",
    "country": "VE",
    "lat": 10.48801,
    "lon": -66.87919,
    "population": 3000000
  },
  {
    "city_id": "703448",
    "name": "Kyiv",
    "country": "UA",
    "lat": 50.45466,
    "lon": 30.5238,
    "population": 2952301
  },
  {
    "city_id": "311046",
    "name": "\u0130zmir",
    "country": "TR",
    "lat": 38.41273,
    "lon": 27.13838,
    "population": 2938292
  },
  {
    "city_id": "1806776",
    "name": "Huizhou",
    "country": "CN",
    "lat": 23.11147,
    "lon": 114.41523,
    "population": 2900113
  },
  {
    "city_id": "3435910",
    "name": "Buenos Aires",
    "country": "AR",
    "lat": -34.61315,
    "lon": -58.37723,
    "population": 2891082
  },
  {
    "city_id": "1625822",
    "name": "Surabaya",
    "country": "ID",
    "lat": -7.24917,
    "lon": 112.75083,
    "population": 2874314
  },
  {
    "city_id": "1809078",
    "name": "Haikou",
    "country": "CN",
    "lat": 20.03421,
    "lon": 110.34651,
    "population": 2873358
  },
  {
    "city_id": "1668399",
    "name": "Taichung",
    "country": "TW",
    "lat": 24.1469,
    "lon": 120.6839,
    "population": 2850285
  },
  {
    "city_id": "1267995",
    "name": "Kanpur",
    "country": "IN",
    "lat": 26.46523,
    "lon": 80.34975,
    "population": 2823249
  },
  {
    "city_id": "6167865",
    "name": "Toronto",
    "country": "CA",
    "lat": 43.70643,
    "lon": -79.39864,
    "population": 2794356
  },
  {
    "city_id": "3652462",
    "name": "Quito",
    "country": "EC",
    "lat": -0.22985,
    "lon": -78.52495,
    "population": 2781641
  },
  {
    "city_id": "2174003",
    "name": "Brisbane",
    "country": "AU",
    "lat": -27.46794,
    "lon": 153.02809,
    "population": 2780063
  },
  {
    "city_id": "2240449",
    "name": "Luanda",
    "country": "AO",
    "lat": -8.83682,
    "lon": 13.23432,
    "population": 2776168
  },
  {
    "city_id": "1853909",
    "name": "Osaka",
    "country": "JP",
    "lat": 34.69379,
    "lon": 135.50107,
    "population": 2753862
  },
  {
    "city_id": "1803318",
    "name": "Linyi",
    "country": "CN",
    "lat": 35.06306,
    "lon": 118.34278,
    "population": 2743843
  },
  {
    "city_id": "1816971",
    "name": "Baoding",
    "country": "CN",
    "lat": 38.87288,
    "lon": 115.46246,
    "population": 2739887
  },
  {
    "city_id": "1673820",
    "name": "Kaohsiung",
    "country": "TW",
    "lat": 22.61626,
    "lon": 120.31333,
    "population": 2737660
  },
  {
    "city_id": "5110302",
    "name": "Brooklyn",
    "country": "US",
    "lat": 40.6501,
    "lon": -73.94958,
    "population": 2736074
  },
  {
    "city_id": "3657509",
    "name": "Guayaquil",
    "country": "EC",
    "lat": -2.19616,
    "lon": -79.88621,
    "population": 2723665
  },
  {
    "city_id": "3470127",
    "name": "Belo Horizonte",
    "country": "BR",
    "lat": -19.92083,
    "lon": -43.93778,
    "population": 2721564
  },
  {
    "city_id": "1800480",
    "name": "Minhang",
    "country": "CN",
    "lat": 31.10881,
    "lon": 121.37471,
    "population": 2716600
  },
  {
    "city_id": "3450554",
    "name": "Salvador",
    "country": "BR",
    "lat": -12.97563,
    "lon": -38.49096,
    "population": 2711840
  },
  {
    "city_id": "2352778",
    "name": "Abuja",
    "country": "NG",
    "lat": 9.05785,
    "lon": 7.49508,
    "population": 2690000
  },
  {
    "city_id": "1200109",
    "name": "Gazipur",
    "country": "BD",
    "lat": 23.99844,
    "lon": 90.42234,
    "population": 2674697
  },
  {
    "city_id": "4887398",
    "name": "Chicago",
    "country": "US",
    "lat": 41.85003,
    "lon": -87.65005,
    "population": 2664452
  },
  {
    "city_id": "1791388",
    "name": "Wenzhou",
    "country": "CN",
    "lat": 27.99942,
    "lon": 120.66682,
    "population": 2650000
  },
  {
    "city_id": "2253354",
    "name": "Dakar",
    "country": "SN",
    "lat": 14.6937,
    "lon": -17.44406,
    "population": 2646503
  },
  {
    "city_id": "1581298",
    "name": "Haiphong",
    "country": "VN",
    "lat": 20.86481,
    "lon": 106.68345,
    "population": 2625200
  },
  {
    "city_id": "1785725",
    "name": "Yunfu",
    "country": "CN",
    "lat": 22.92787,
    "lon": 112.03809,
    "population": 2612800
  },
  {
    "city_id": "6619347",
    "name": "Navi Mumbai",
    "country": "IN",
    "lat": 19.03681,
    "lon": 73.01582,
    "population": 2600000
  },
  {
    "city_id": "53654",
    "name": "Mogadishu",
    "country": "SO",
    "lat": 2.03711,
    "lon": 45.34375,
    "population": 2587183
  },
  {
    "city_id": "1649378",
    "name": "Bekasi",
    "country": "ID",
    "lat": -6.2349,
    "lon": 106.9896,
    "population": 2564940
  },
  {
    "city_id": "2298890",
    "name": "Kumasi",
    "country": "GH",
    "lat": 6.68848,
    "lon": -1.62443,
    "population": 2544530
  },
  {
    "city_id": "1177662",
    "name": "Gujranwala",
    "country": "PK",
    "lat": 32.15567,
    "lon": 74.18705,
    "population": 2511118
  },
  {
    "city_id": "1797873",
    "name": "Huai'an",
    "country": "CN",
    "lat": 33.58861,
    "lon": 119.01917,
    "population": 2494013
  },
  {
    "city_id": "1264733",
    "name": "Lucknow",
    "country": "IN",
    "lat": 26.83928,
    "lon": 80.92313,
    "population": 2472011
  },
  {
    "city_id": "1650357",
    "name": "Bandung",
    "country": "ID",
    "lat": -6.92222,
    "lon": 107.60694,
    "population": 2444160
  },
  {
    "city_id": "1214520",
    "name": "Medan",
    "country": "ID",
    "lat": 3.58333,
    "lon": 98.66667,
    "population": 2435252
  },
  {
    "city_id": "2357048",
    "name": "Ouagadougou",
    "country": "BF",
    "lat": 12.36566,
    "lon": -1.53388,
    "population": 2415266
  },
  {
    "city_id": "1262180",
    "name": "Nagpur",
    "country": "IN",
    "lat": 21.14631,
    "lon": 79.08491,
    "population": 2405665
  },
  {
    "city_id": "3399415",
    "name": "Fortaleza",
    "country": "BR",
    "lat": -3.71722,
    "lon": -38.54306,
    "population": 2400000
  },
  {
    "city_id": "3687925",
    "name": "Cali",
    "country": "CO",
    "lat": 3.43054,
    "lon": -76.5199,
    "population": 2392877
  },
  {
    "city_id": "1835329",
    "name": "Daegu",
    "country": "KR",
    "lat": 35.87028,
    "lon": 128.59111,
    "population": 2365523
  },
  {
    "city_id": "2507480",
    "name": "Algiers",
    "country": "DZ",
    "lat": 36.73225,
    "lon": 3.08746,
    "population": 2364230
  },
  {
    "city_id": "1800163",
    "name": "Nanchang",
    "country": "CN",
    "lat": 28.68396,
    "lon": 115.85306,
    "population": 2357839
  },
  {
    "city_id": "587084",
    "name": "Baku",
    "country": "AZ",
    "lat": 40.37767,
    "lon": 49.89201,
    "population": 2351300
  },
  {
    "city_id": "2036892",
    "name": "Hohhot",
    "country": "CN",
    "lat": 40.81056,
    "lon": 111.65222,
    "population": 2350000
  },
  {
    "city_id": "1856057",
    "name": "Nagoya",
    "country": "JP",
    "lat": 35.18147,
    "lon": 136.90641,
    "population": 2332176
  },
  {
    "city_id": "3169070",
    "name": "Rome",
    "country": "IT",
    "lat": 41.89193,
    "lon": 12.51133,
    "population": 2318895
  },
  {
    "city_id": "5133273",
    "name": "Queens",
    "country": "US",
    "lat": 40.68149,
    "lon": -73.83652,
    "population": 2316841
  },
  {
    "city_id": "4699066",
    "name": "Houston",
    "country": "US",
    "lat": 29.76328,
    "lon": -95.36327,
    "population": 2314157
  },
  {
    "city_id": "2063523",
    "name": "Perth",
    "country": "AU",
    "lat": -31.95224,
    "lon": 115.8614,
    "population": 2309338
  },
  {
    "city_id": "124665",
    "name": "Mashhad",
    "country": "IR",
    "lat": 36.29807,
    "lon": 59.60567,
    "population": 2307177
  },
  {
    "city_id": "1795855",
    "name": "Shaoxing",
    "country": "CN",
    "lat": 30.00237,
    "lon": 120.57864,
    "population": 2300000
  },
  {
    "city_id": "1799722",
    "name": "Nantong",
    "country": "CN",
    "lat": 32.03028,
    "lon": 120.87472,
    "population": 2273326
  },
  {
    "city_id": "1816917",
    "name": "Baoshan",
    "country": "CN",
    "lat": 31.40845,
    "lon": 121.48956,
    "population": 2265900
  },
  {
    "city_id": "1819609",
    "name": "Kowloon",
    "country": "HK",
    "lat": 22.31667,
    "lon": 114.18333,
    "population": 2232339
  },
  {
    "city_id": "1787093",
    "name": "Yantai",
    "country": "CN",
    "lat": 37.47649,
    "lon": 121.44081,
    "population": 2227733
  },
  {
    "city_id": "922704",
    "name": "Lubumbashi",
    "country": "CD",
    "lat": -11.66089,
    "lon": 27.47938,
    "population": 2221925
  },
  {
    "city_id": "3663517",
    "name": "Manaus",
    "country": "BR",
    "lat": -3.10194,
    "lon": -60.025,
    "population": 2219580
  },
  {
    "city_id": "909137",
    "name": "Lusaka",
    "country": "ZM",
    "lat": -15.40669,
    "lon": 28.28713,
    "population": 2212301
  },
  {
    "city_id": "3469058",
    "name": "Bras\u00edlia",
    "country": "BR",
    "lat": -15.77972,
    "lon": -47.92972,
    "population": 2207718
  },
  {
    "city_id": "1790437",
    "name": "Zhuhai",
    "country": "CN",
    "lat": 22.27694,
    "lon": 113.56778,
    "population": 2207090
  },
  {
    "city_id": "3492908",
    "name": "Santo Domingo",
    "country": "DO",
    "lat": 18.47186,
    "lon": -69.89232,
    "population": 2201941
  },
  {
    "city_id": "2365267",
    "name": "Lom\u00e9",
    "country": "TG",
    "lat": 6.12874,
    "lon": 1.22154,
    "population": 2188376
  },
  {
    "city_id": "1169825",
    "name": "Multan",
    "country": "PK",
    "lat": 30.19679,
    "lon": 71.47824,
    "population": 2169915
  },
  {
    "city_id": "3553478",
    "name": "Havana",
    "country": "CU",
    "lat": 23.13302,
    "lon": -82.38304,
    "population": 2163824
  },
  {
    "city_id": "2038432",
    "name": "Baotou",
    "country": "CN",
    "lat": 40.6516,
    "lon": 109.84389,
    "population": 2150000
  },
  {
    "city_id": "1645524",
    "name": "Depok",
    "country": "ID",
    "lat": -6.4,
    "lon": 106.81861,
    "population": 2145400
  },
  {
    "city_id": "2988507",
    "name": "Paris",
    "country": "FR",
    "lat": 48.85341,
    "lon": 2.3488,
    "population": 2138551
  },
  {
    "city_id": "1273865",
    "name": "Coimbatore",
    "country": "IN",
    "lat": 11.00555,
    "lon": 76.96612,
    "population": 2136916
  },
  {
    "city_id": "314830",
    "name": "Gaziantep",
    "country": "TR",
    "lat": 37.05944,
    "lon": 37.3825,
    "population": 2130432
  },
  {
    "city_id": "12359313",
    "name": "Qingyang",
    "country": "CN",
    "lat": 35.70976,
    "lon": 107.64455,
    "population": 2125400
  },
  {
    "city_id": "2324774",
    "name": "Port Harcourt",
    "country": "NG",
    "lat": 4.77742,
    "lon": 7.0134,
    "population": 2120000
  },
  {
    "city_id": "964137",
    "name": "Pretoria",
    "country": "ZA",
    "lat": -25.74486,
    "lon": 28.18783,
    "population": 2112693
  },
  {
    "city_id": "3860259",
    "name": "C\u00f3rdoba",
    "country": "AR",
    "lat": -31.40648,
    "lon": -64.18853,
    "population": 2106734
  },
  {
    "city_id": "209228",
    "name": "Mbuji-Mayi",
    "country": "CD",
    "lat": -6.13603,
    "lon": 23.58979,
    "population": 2101332
  },
  {
    "city_id": "170063",
    "name": "Aleppo",
    "country": "SY",
    "lat": 36.20124,
    "lon": 37.16117,
    "population": 2098210
  },
  {
    "city_id": "1785623",
    "name": "Kunshan",
    "country": "CN",
    "lat": 31.37762,
    "lon": 120.95431,
    "population": 2092496
  },
  {
    "city_id": "99071",
    "name": "Al Maw\u015fil al Jad\u012bdah",
    "country": "IQ",
    "lat": 36.33271,
    "lon": 43.10555,
    "population": 2065597
  },
  {
    "city_id": "1791681",
    "name": "Weifang",
    "country": "CN",
    "lat": 36.71,
    "lon": 119.10194,
    "population": 2044028
  },
  {
    "city_id": "1783621",
    "name": "Zunyi",
    "country": "CN",
    "lat": 27.68667,
    "lon": 106.90722,
    "population": 2037775
  },
  {
    "city_id": "388349",
    "name": "Al Ba\u015frah al Qad\u012bmah",
    "country": "IQ",
    "lat": 30.50316,
    "lon": 47.81507,
    "population": 2015483
  },
  {
    "city_id": "3911925",
    "name": "La Paz",
    "country": "BO",
    "lat": -16.5,
    "lon": -68.15,
    "population": 2004652
  },
  {
    "city_id": "10859300",
    "name": "Lianyungang",
    "country": "CN",
    "lat": 34.59845,
    "lon": 119.21556,
    "population": 2001009
  },
  {
    "city_id": "3674962",
    "name": "Medell\u00edn",
    "country": "CO",
    "lat": 6.245,
    "lon": -75.57151,
    "population": 1999979
  },
  {
    "city_id": "1269743",
    "name": "Indore",
    "country": "IN",
    "lat": 22.71792,
    "lon": 75.8333,
    "population": 1994397
  },
  {
    "city_id": "2260535",
    "name": "Brazzaville",
    "country": "CG",
    "lat": -4.26613,
    "lon": 15.28318,
    "population": 1982000
  },
  {
    "city_id": "1512569",
    "name": "Tashkent",
    "country": "UZ",
    "lat": 41.26465,
    "lon": 69.21627,
    "population": 1978028
  },
  {
    "city_id": "1810638",
    "name": "Ganzhou",
    "country": "CN",
    "lat": 25.84664,
    "lon": 114.9326,
    "population": 1977253
  },
  {
    "city_id": "1526384",
    "name": "Almaty",
    "country": "KZ",
    "lat": 43.25249,
    "lon": 76.9115,
    "population": 1977011
  },
  {
    "city_id": "379252",
    "name": "Khartoum",
    "country": "SD",
    "lat": 15.55177,
    "lon": 32.53241,
    "population": 1974647
  },
  {
    "city_id": "2128295",
    "name": "Sapporo",
    "country": "JP",
    "lat": 43.06667,
    "lon": 141.35,
    "population": 1973832
  },
  {
    "city_id": "1794035",
    "name": "Songjiang",
    "country": "CN",
    "lat": 31.03443,
    "lon": 121.22326,
    "population": 1973500
  },
  {
    "city_id": "2306104",
    "name": "Accra",
    "country": "GH",
    "lat": 5.55602,
    "lon": -0.1969,
    "population": 1963264
  },
  {
    "city_id": "3464975",
    "name": "Curitiba",
    "country": "BR",
    "lat": -25.42778,
    "lon": -49.27306,
    "population": 1948626
  },
  {
    "city_id": "8347664",
    "name": "Ordos",
    "country": "CN",
    "lat": 39.6086,
    "lon": 109.78157,
    "population": 1940653
  },
  {
    "city_id": "71137",
    "name": "Sanaa",
    "country": "YE",
    "lat": 15.35452,
    "lon": 44.20646,
    "population": 1937451
  },
  {
    "city_id": "2422465",
    "name": "Conakry",
    "country": "GN",
    "lat": 9.53795,
    "lon": -13.67729,
    "population": 1928389
  },
  {
    "city_id": "3981609",
    "name": "Tijuana",
    "country": "MX",
    "lat": 32.5027,
    "lon": -117.00371,
    "population": 1922523
  },
  {
    "city_id": "1176734",
    "name": "Hyderabad",
    "country": "PK",
    "lat": 25.39689,
    "lon": 68.37718,
    "population": 1921275
  },
  {
    "city_id": "276781",
    "name": "Beirut",
    "country": "LB",
    "lat": 33.89332,
    "lon": 35.50157,
    "population": 1916100
  },
  {
    "city_id": "1625084",
    "name": "Tangerang",
    "country": "ID",
    "lat": -6.17806,
    "lon": 106.63,
    "population": 1912679
  },
  {
    "city_id": "1797121",
    "name": "Jieyang",
    "country": "CN",
    "lat": 23.5418,
    "lon": 116.36581,
    "population": 1899394
  },
  {
    "city_id": "2036502",
    "name": "Jilin",
    "country": "CN",
    "lat": 43.84652,
    "lon": 126.5608,
    "population": 1895865
  },
  {
    "city_id": "1806508",
    "name": "Jiading",
    "country": "CN",
    "lat": 31.38575,
    "lon": 121.24465,
    "population": 1886100
  },
  {
    "city_id": "683506",
    "name": "Bucharest",
    "country": "RO",
    "lat": 44.43225,
    "lon": 26.10626,
    "population": 1877155
  },
  {
    "city_id": "2422488",
    "name": "Camayenne",
    "country": "GN",
    "lat": 9.535,
    "lon": -13.68778,
    "population": 1871242
  },
  {
    "city_id": "195272",
    "name": "Kakamega",
    "country": "KE",
    "lat": 0.28422,
    "lon": 34.75229,
    "population": 1867579
  },
  {
    "city_id": "1800146",
    "name": "Nanchong",
    "country": "CN",
    "lat": 30.79508,
    "lon": 106.08473,
    "population": 1858875
  },
  {
    "city_id": "1668355",
    "name": "Tainan",
    "country": "TW",
    "lat": 22.99083,
    "lon": 120.21333,
    "population": 1856642
  },
  {
    "city_id": "2037799",
    "name": "Datong",
    "country": "CN",
    "lat": 40.09361,
    "lon": 113.29139,
    "population": 1850000
  },
  {
    "city_id": "2335727",
    "name": "Kaduna",
    "country": "NG",
    "lat": 10.52641,
    "lon": 7.43879,
    "population": 1850000
  },
  {
    "city_id": "365137",
    "name": "Omdurman",
    "country": "SD",
    "lat": 15.64453,
    "lon": 32.47773,
    "population": 1849659
  },
  {
    "city_id": "1715348",
    "name": "Davao",
    "country": "PH",
    "lat": 7.07306,
    "lon": 125.61278,
    "population": 1848947
  },
  {
    "city_id": "2911298",
    "name": "Hamburg",
    "country": "DE",
    "lat": 53.55073,
    "lon": 9.99302,
    "population": 1845229
  },
  {
    "city_id": "1254661",
    "name": "Th\u0101ne",
    "country": "IN",
    "lat": 19.19704,
    "lon": 72.96355,
    "population": 1841488
  },
  {
    "city_id": "3526683",
    "name": "Iztapalapa",
    "country": "MX",
    "lat": 19.35529,
    "lon": -99.06224,
    "population": 1835486
  },
  {
    "city_id": "3904906",
    "name": "Santa Cruz de la Sierra",
    "country": "BO",
    "lat": -17.78629,
    "lon": -63.18117,
    "population": 1831434
  },
  {
    "city_id": "1253573",
    "name": "Vadodara",
    "country": "IN",
    "lat": 22.29941,
    "lon": 73.20812,
    "population": 1822221
  },
  {
    "city_id": "325363",
    "name": "Adana",
    "country": "TR",
    "lat": 36.98615,
    "lon": 35.32531,
    "population": 1816750
  },
  {
    "city_id": "1799629",
    "name": "Nanyang",
    "country": "CN",
    "lat": 33.00524,
    "lon": 112.54659,
    "population": 1811812
  },
  {
    "city_id": "292968",
    "name": "Abu Dhabi",
    "country": "AE",
    "lat": 24.45118,
    "lon": 54.39696,
    "population": 1807000
  },
  {
    "city_id": "292672",
    "name": "Sharjah",
    "country": "AE",
    "lat": 25.3342,
    "lon": 55.41221,
    "population": 1800000
  },
  {
    "city_id": "1275841",
    "name": "Bhopal",
    "country": "IN",
    "lat": 23.25469,
    "lon": 77.40289,
    "population": 1798218
  },
  {
    "city_id": "1806299",
    "name": "Jiangmen",
    "country": "CN",
    "lat": 22.58333,
    "lon": 113.08333,
    "population": 1795459
  },
  {
    "city_id": "316541",
    "name": "Diyarbak\u0131r",
    "country": "TR",
    "lat": 37.91363,
    "lon": 40.21721,
    "population": 1791373
  },
  {
    "city_id": "2347283",
    "name": "Benin City",
    "country": "NG",
    "lat": 6.33815,
    "lon": 5.62575,
    "population": 1782000
  },
  {
    "city_id": "1815251",
    "name": "Jiangyin",
    "country": "CN",
    "lat": 31.91102,
    "lon": 120.26302,
    "population": 1779515
  },
  {
    "city_id": "1810845",
    "name": "Fuyang",
    "country": "CN",
    "lat": 32.9,
    "lon": 115.81667,
    "population": 1768947
  },
  {
    "city_id": "6077243",
    "name": "Montr\u00e9al",
    "country": "CA",
    "lat": 45.50884,
    "lon": -73.58781,
    "population": 1762949
  },
  {
    "city_id": "11838258",
    "name": "Bayan Nur",
    "country": "CN",
    "lat": 40.74143,
    "lon": 107.38599,
    "population": 1760000
  },
  {
    "city_id": "3633009",
    "name": "Maracaibo",
    "country": "VE",
    "lat": 10.64232,
    "lon": -71.61089,
    "population": 1752602
  },
  {
    "city_id": "1815395",
    "name": "Chaozhou",
    "country": "CN",
    "lat": 23.65396,
    "lon": 116.62262,
    "population": 1750945
  },
  {
    "city_id": "625144",
    "name": "Minsk",
    "country": "BY",
    "lat": 53.90019,
    "lon": 27.56653,
    "population": 1742124
  },
  {
    "city_id": "3054643",
    "name": "Budapest",
    "country": "HU",
    "lat": 47.49835,
    "lon": 19.04045,
    "population": 1741041
  },
  {
    "city_id": "1797945",
    "name": "Qingyuan",
    "country": "CN",
    "lat": 23.7,
    "lon": 113.03333,
    "population": 1738424
  },
  {
    "city_id": "1793724",
    "name": "Tai\u2019an",
    "country": "CN",
    "lat": 36.18528,
    "lon": 117.12,
    "population": 1735425
  },
  {
    "city_id": "1258393",
    "name": "Rasap\u016bdipalem",
    "country": "IN",
    "lat": 17.73308,
    "lon": 83.31622,
    "population": 1728128
  },
  {
    "city_id": "7626690",
    "name": "Pimpri-Chinchwad",
    "country": "IN",
    "lat": 18.61867,
    "lon": 73.80375,
    "population": 1727692
  },
  {
    "city_id": "1720151",
    "name": "Caloocan",
    "country": "PH",
    "lat": 14.64953,
    "lon": 120.96788,
    "population": 1712945
  },
  {
    "city_id": "756135",
    "name": "Warsaw",
    "country": "PL",
    "lat": 52.22977,
    "lon": 21.01178,
    "population": 1702139
  },
  {
    "city_id": "953781",
    "name": "Soweto",
    "country": "ZA",
    "lat": -26.26781,
    "lon": 27.85849,
    "population": 1695047
  },
  {
    "city_id": "3521081",
    "name": "Puebla",
    "country": "MX",
    "lat": 19.04778,
    "lon": -98.20723,
    "population": 1692181
  },
  {
    "city_id": "2761369",
    "name": "Vienna",
    "country": "AT",
    "lat": 48.20849,
    "lon": 16.37208,
    "population": 1691468
  },
  {
    "city_id": "3128760",
    "name": "Barcelona",
    "country": "ES",
    "lat": 41.38879,
    "lon": 2.15899,
    "population": 1686208
  },
  {
    "city_id": "1260086",
    "name": "Patna",
    "country": "IN",
    "lat": 25.59408,
    "lon": 85.13563,
    "population": 1684297
  },
  {
    "city_id": "99072",
    "name": "Mosul",
    "country": "IQ",
    "lat": 36.335,
    "lon": 43.11889,
    "population": 1683000
  },
  {
    "city_id": "12165956",
    "name": "Kallakurichi",
    "country": "IN",
    "lat": 11.73379,
    "lon": 78.95925,
    "population": 1682687
  },
  {
    "city_id": "232422",
    "name": "Kampala",
    "country": "UG",
    "lat": 0.31628,
    "lon": 32.58219,
    "population": 1680600
  },
  {
    "city_id": "1788852",
    "name": "Xining",
    "country": "CN",
    "lat": 36.62554,
    "lon": 101.75739,
    "population": 1677177
  },
  {
    "city_id": "7283386",
    "name": "Changshu",
    "country": "CN",
    "lat": 31.64615,
    "lon": 120.74221,
    "population": 1677050
  },
  {
    "city_id": "1633070",
    "name": "Palembang",
    "country": "ID",
    "lat": -2.91673,
    "lon": 104.7458,
    "population": 1668848
  },
  {
    "city_id": "1807681",
    "name": "Huainan",
    "country": "CN",
    "lat": 32.62639,
    "lon": 116.99694,
    "population": 1666826
  },
  {
    "city_id": "2538475",
    "name": "Rabat",
    "country": "MA",
    "lat": 34.01325,
    "lon": -6.83255,
    "population": 1655753
  },
  {
    "city_id": "1627896",
    "name": "Semarang",
    "country": "ID",
    "lat": -6.99306,
    "lon": 110.42083,
    "population": 1653524
  },
  {
    "city_id": "3390760",
    "name": "Recife",
    "country": "BR",
    "lat": -8.05389,
    "lon": -34.88111,
    "population": 1653461
  },
  {
    "city_id": "5308655",
    "name": "Phoenix",
    "country": "US",
    "lat": 33.44838,
    "lon": -112.07404,
    "population": 1650070
  },
  {
    "city_id": "1793743",
    "name": "Suzhou",
    "country": "CN",
    "lat": 33.63611,
    "lon": 116.97889,
    "population": 1647642
  },
  {
    "city_id": "3529612",
    "name": "Ecatepec de Morelos",
    "country": "MX",
    "lat": 19.60492,
    "lon": -99.06064,
    "population": 1645352
  },
  {
    "city_id": "1802206",
    "name": "Lu\u2019an",
    "country": "CN",
    "lat": 31.73561,
    "lon": 116.51688,
    "population": 1644344
  },
  {
    "city_id": "3625549",
    "name": "Valencia",
    "country": "VE",
    "lat": 10.16153,
    "lon": -68.00044,
    "population": 1619470
  },
  {
    "city_id": "1264728",
    "name": "Ludhiana",
    "country": "IN",
    "lat": 30.91204,
    "lon": 75.85379,
    "population": 1618879
  },
  {
    "city_id": "1787746",
    "name": "Yancheng",
    "country": "CN",
    "lat": 33.3575,
    "lon": 120.1573,
    "population": 1615717
  },
  {
    "city_id": "1496747",
    "name": "Novosibirsk",
    "country": "RU",
    "lat": 55.02259,
    "lon": 82.93175,
    "population": 1612833
  },
  {
    "city_id": "95446",
    "name": "Erbil",
    "country": "IQ",
    "lat": 36.19117,
    "lon": 44.00943,
    "population": 1612700
  },
  {
    "city_id": "1863967",
    "name": "Fukuoka",
    "country": "JP",
    "lat": 33.6,
    "lon": 130.41667,
    "population": 1612392
  },
  {
    "city_id": "1793505",
    "name": "Taizhou",
    "country": "CN",
    "lat": 32.49069,
    "lon": 119.90812,
    "population": 1607108
  },
  {
    "city_id": "2037860",
    "name": "Daqing",
    "country": "CN",
    "lat": 46.58333,
    "lon": 125.0,
    "population": 1604027
  },
  {
    "city_id": "1701668",
    "name": "Manila",
    "country": "PH",
    "lat": 14.6042,
    "lon": 120.9822,
    "population": 1600000
  },
  {
    "city_id": "1791236",
    "name": "Wuhu",
    "country": "CN",
    "lat": 31.35259,
    "lon": 118.42947,
    "population": 1598165
  },
  {
    "city_id": "3991164",
    "name": "Santiago de Quer\u00e9taro",
    "country": "MX",
    "lat": 20.58806,
    "lon": -100.38806,
    "population": 1594212
  },
  {
    "city_id": "1813325",
    "name": "Dazhou",
    "country": "CN",
    "lat": 31.2106,
    "lon": 107.46308,
    "population": 1589435
  },
  {
    "city_id": "1787227",
    "name": "Yangzhou",
    "country": "CN",
    "lat": 32.39722,
    "lon": 119.43583,
    "population": 1584237
  },
  {
    "city_id": "3998655",
    "name": "Le\u00f3n de los Aldama",
    "country": "MX",
    "lat": 21.12908,
    "lon": -101.67374,
    "population": 1579803
  },
  {
    "city_id": "104515",
    "name": "Makkah",
    "country": "SA",
    "lat": 21.42664,
    "lon": 39.82563,
    "population": 1578722
  },
  {
    "city_id": "4560349",
    "name": "Philadelphia",
    "country": "US",
    "lat": 39.95238,
    "lon": -75.16362,
    "population": 1573916
  },
  {
    "city_id": "1821306",
    "name": "Phnom Penh",
    "country": "KH",
    "lat": 11.56245,
    "lon": 104.91601,
    "population": 1573544
  },
  {
    "city_id": "1809498",
    "name": "Guilin",
    "country": "CN",
    "lat": 25.28022,
    "lon": 110.29639,
    "population": 1572300
  },
  {
    "city_id": "170654",
    "name": "Damascus",
    "country": "SY",
    "lat": 33.5102,
    "lon": 36.29128,
    "population": 1569394
  },
  {
    "city_id": "1167528",
    "name": "Quetta",
    "country": "PK",
    "lat": 30.18414,
    "lon": 67.00141,
    "population": 1565546
  },
  {
    "city_id": "1784853",
    "name": "Zhaoqing",
    "country": "CN",
    "lat": 23.04893,
    "lon": 112.46091,
    "population": 1553109
  },
  {
    "city_id": "2326016",
    "name": "Onitsha",
    "country": "NG",
    "lat": 6.14978,
    "lon": 6.78569,
    "population": 1553000
  },
  {
    "city_id": "1800627",
    "name": "Mianyang",
    "country": "CN",
    "lat": 31.46784,
    "lon": 104.68168,
    "population": 1550000
  },
  {
    "city_id": "418863",
    "name": "Isfahan",
    "country": "IR",
    "lat": 32.65246,
    "lon": 51.67462,
    "population": 1547164
  },
  {
    "city_id": "12358576",
    "name": "Wanzhou",
    "country": "CN",
    "lat": 30.76451,
    "lon": 108.39586,
    "population": 1545900
  },
  {
    "city_id": "890299",
    "name": "Harare",
    "country": "ZW",
    "lat": -17.82772,
    "lon": 31.05337,
    "population": 1542813
  },
  {
    "city_id": "2274895",
    "name": "Monrovia",
    "country": "LR",
    "lat": 6.30054,
    "lon": -10.7969,
    "population": 1542549
  },
  {
    "city_id": "1798449",
    "name": "Putian",
    "country": "CN",
    "lat": 25.43944,
    "lon": 119.01028,
    "population": 1539389
  },
  {
    "city_id": "1859642",
    "name": "Kawasaki",
    "country": "JP",
    "lat": 35.52056,
    "lon": 139.71722,
    "population": 1538262
  },
  {
    "city_id": "1783934",
    "name": "Shangqiu",
    "country": "CN",
    "lat": 34.45,
    "lon": 115.65,
    "population": 1536392
  },
  {
    "city_id": "3462377",
    "name": "Goi\u00e2nia",
    "country": "BR",
    "lat": -16.67861,
    "lon": -49.25389,
    "population": 1536097
  },
  {
    "city_id": "2193733",
    "name": "Auckland",
    "country": "NZ",
    "lat": -36.84853,
    "lon": 174.76349,
    "population": 1530500
  },
  {
    "city_id": "4726206",
    "name": "San Antonio",
    "country": "US",
    "lat": 29.42412,
    "lon": -98.49363,
    "population": 1526656
  },
  {
    "city_id": "1859171",
    "name": "Kobe",
    "country": "JP",
    "lat": 34.6913,
    "lon": 135.183,
    "population": 1525152
  },
  {
    "city_id": "2673730",
    "name": "Stockholm",
    "country": "SE",
    "lat": 59.32938,
    "lon": 18.06871,
    "population": 1515017
  },
  {
    "city_id": "4013708",
    "name": "Ciudad Ju\u00e1rez",
    "country": "MX",
    "lat": 31.72024,
    "lon": -106.46084,
    "population": 1512450
  },
  {
    "city_id": "1586203",
    "name": "C\u1ea7n Th\u01a1",
    "country": "VN",
    "lat": 10.03711,
    "lon": 105.78825,
    "population": 1507187
  },
  {
    "city_id": "1336135",
    "name": "Khulna",
    "country": "BD",
    "lat": 22.80979,
    "lon": 89.56439,
    "population": 1500689
  },
  {
    "city_id": "3405870",
    "name": "Bel\u00e9m",
    "country": "BR",
    "lat": -1.45583,
    "lon": -48.50444,
    "population": 1499641
  },
  {
    "city_id": "1486209",
    "name": "Yekaterinburg",
    "country": "RU",
    "lat": 56.85733,
    "lon": 60.61529,
    "population": 1495066
  },
  {
    "city_id": "3452925",
    "name": "Porto Alegre",
    "country": "BR",
    "lat": -30.03283,
    "lon": -51.23019,
    "population": 1488252
  },
  {
    "city_id": "1786657",
    "name": "Yinchuan",
    "country": "CN",
    "lat": 38.46806,
    "lon": 106.27306,
    "population": 1487579
  },
  {
    "city_id": "5125771",
    "name": "Manhattan",
    "country": "US",
    "lat": 40.78343,
    "lon": -73.96625,
    "population": 1487536
  },
  {
    "city_id": "1261731",
    "name": "Nashik",
    "country": "IN",
    "lat": 19.99727,
    "lon": 73.79096,
    "population": 1486053
  },
  {
    "city_id": "8400694",
    "name": "Taizhou",
    "country": "CN",
    "lat": 28.66266,
    "lon": 121.43312,
    "population": 1485502
  },
  {
    "city_id": "3439389",
    "name": "Asunci\u00f3n",
    "country": "PY",
    "lat": -25.28646,
    "lon": -57.647,
    "population": 1482200
  },
  {
    "city_id": "1814870",
    "name": "Yiwu",
    "country": "CN",
    "lat": 29.31506,
    "lon": 120.07676,
    "population": 1481384
  },
  {
    "city_id": "3979770",
    "name": "Zapopan",
    "country": "MX",
    "lat": 20.72111,
    "lon": -103.38742,
    "population": 1476491
  },
  {
    "city_id": "1835235",
    "name": "Daejeon",
    "country": "KR",
    "lat": 36.34913,
    "lon": 127.38493,
    "population": 1470336
  },
  {
    "city_id": "2078025",
    "name": "Adelaide",
    "country": "AU",
    "lat": -34.92866,
    "lon": 138.59863,
    "population": 1469163
  },
  {
    "city_id": "1797353",
    "name": "Quanzhou",
    "country": "CN",
    "lat": 24.91389,
    "lon": 118.58583,
    "population": 1469157
  },
  {
    "city_id": "1264521",
    "name": "Madurai",
    "country": "IN",
    "lat": 9.919,
    "lon": 78.11953,
    "population": 1465625
  },
  {
    "city_id": "1805528",
    "name": "Jinhua",
    "country": "CN",
    "lat": 29.10678,
    "lon": 119.64421,
    "population": 1463990
  },
  {
    "city_id": "1857910",
    "name": "Kyoto",
    "country": "JP",
    "lat": 35.02107,
    "lon": 135.75385,
    "population": 1463723
  },
  {
    "city_id": "1806602",
    "name": "Cixi",
    "country": "CN",
    "lat": 30.1764,
    "lon": 121.2457,
    "population": 1457510
  },
  {
    "city_id": "1791121",
    "name": "Changde",
    "country": "CN",
    "lat": 29.03205,
    "lon": 111.69844,
    "population": 1457419
  },
  {
    "city_id": "1735161",
    "name": "Kuala Lumpur",
    "country": "MY",
    "lat": 3.1412,
    "lon": 101.68653,
    "population": 1453975
  },
  {
    "city_id": "1804879",
    "name": "Kaifeng",
    "country": "CN",
    "lat": 34.7986,
    "lon": 114.30742,
    "population": 1451741
  },
  {
    "city_id": "2038632",
    "name": "Anshan",
    "country": "CN",
    "lat": 41.12361,
    "lon": 122.99,
    "population": 1450000
  },
  {
    "city_id": "128747",
    "name": "Karaj",
    "country": "IR",
    "lat": 35.83266,
    "lon": 50.99155,
    "population": 1448075
  },
  {
    "city_id": "1283240",
    "name": "Kathmandu",
    "country": "NP",
    "lat": 27.70169,
    "lon": 85.3206,
    "population": 1442271
  },
  {
    "city_id": "10942359",
    "name": "Baoji",
    "country": "CN",
    "lat": 34.36775,
    "lon": 107.23705,
    "population": 1437802
  },
  {
    "city_id": "1793771",
    "name": "Suqian",
    "country": "CN",
    "lat": 33.94917,
    "lon": 118.29583,
    "population": 1437685
  },
  {
    "city_id": "1803300",
    "name": "Liuzhou",
    "country": "CN",
    "lat": 24.32405,
    "lon": 109.40698,
    "population": 1436599
  },
  {
    "city_id": "1254361",
    "name": "Tirunelveli",
    "country": "IN",
    "lat": 8.72742,
    "lon": 77.6838,
    "population": 1435844
  },
  {
    "city_id": "308464",
    "name": "Kayseri",
    "country": "TR",
    "lat": 38.73222,
    "lon": 35.48528,
    "population": 1434357
  },
  {
    "city_id": "706483",
    "name": "Kharkiv",
    "country": "UA",
    "lat": 49.98177,
    "lon": 36.25475,
    "population": 1433886
  },
  {
    "city_id": "306571",
    "name": "Konya",
    "country": "TR",
    "lat": 37.87135,
    "lon": 32.48464,
    "population": 1433861
  },
  {
    "city_id": "1787331",
    "name": "Zhangjiagang",
    "country": "CN",
    "lat": 31.865,
    "lon": 120.53889,
    "population": 1432044
  },
  {
    "city_id": "1279259",
    "name": "Agra",
    "country": "IN",
    "lat": 27.18333,
    "lon": 78.01667,
    "population": 1430055
  },
  {
    "city_id": "113646",
    "name": "Tabriz",
    "country": "IR",
    "lat": 38.08,
    "lon": 46.2919,
    "population": 1424641
  },
  {
    "city_id": "1622786",
    "name": "Makassar",
    "country": "ID",
    "lat": -5.14861,
    "lon": 119.43194,
    "population": 1423877
  },
  {
    "city_id": "1797658",
    "name": "Jinjiang",
    "country": "CN",
    "lat": 24.81978,
    "lon": 118.57415,
    "population": 1416151
  },
  {
    "city_id": "1271951",
    "name": "Faridabad",
    "country": "IN",
    "lat": 28.41124,
    "lon": 77.31316,
    "population": 1414050
  },
  {
    "city_id": "1816234",
    "name": "Bozhou",
    "country": "CN",
    "lat": 33.87722,
    "lon": 115.77028,
    "population": 1409436
  },
  {
    "city_id": "1797318",
    "name": "Qujing",
    "country": "CN",
    "lat": 25.48333,
    "lon": 103.78333,
    "population": 1408500
  },
  {
    "city_id": "8581443",
    "name": "South Tangerang",
    "country": "ID",
    "lat": -6.28862,
    "lon": 106.71789,
    "population": 1404785
  },
  {
    "city_id": "5391811",
    "name": "San Diego",
    "country": "US",
    "lat": 32.71571,
    "lon": -117.16472,
    "population": 1404452
  },
  {
    "city_id": "1784990",
    "name": "Zhanjiang",
    "country": "CN",
    "lat": 21.23391,
    "lon": 110.38749,
    "population": 1400709
  },
  {
    "city_id": "2037355",
    "name": "Fushun",
    "country": "CN",
    "lat": 41.88669,
    "lon": 123.94363,
    "population": 1400646
  },
  {
    "city_id": "1841811",
    "name": "Gwangju",
    "country": "KR",
    "lat": 35.15472,
    "lon": 126.91556,
    "population": 1398538
  },
  {
    "city_id": "1258847",
    "name": "R\u0101jkot",
    "country": "IN",
    "lat": 22.29161,
    "lon": 70.79322,
    "population": 1390640
  },
  {
    "city_id": "1801792",
    "name": "Luoyang",
    "country": "CN",
    "lat": 34.67345,
    "lon": 112.43684,
    "population": 1390581
  },
  {
    "city_id": "4005539",
    "name": "Guadalajara",
    "country": "MX",
    "lat": 20.67738,
    "lon": -103.34749,
    "population": 1385629
  },
  {
    "city_id": "5110266",
    "name": "The Bronx",
    "country": "US",
    "lat": 40.84985,
    "lon": -73.86641,
    "population": 1385108
  },
  {
    "city_id": "1802875",
    "name": "Guankou",
    "country": "CN",
    "lat": 28.15861,
    "lon": 113.62709,
    "population": 1380000
  },
  {
    "city_id": "1580240",
    "name": "Hu\u1ebf",
    "country": "VN",
    "lat": 16.4619,
    "lon": 107.59546,
    "population": 1380000
  },
  {
    "city_id": "3173435",
    "name": "Milan",
    "country": "IT",
    "lat": 45.46427,
    "lon": 9.18951,
    "population": 1371498
  },
  {
    "city_id": "1262111",
    "name": "Najafgarh",
    "country": "IN",
    "lat": 28.60922,
    "lon": 76.97982,
    "population": 1365000
  },
  {
    "city_id": "2427123",
    "name": "N'Djamena",
    "country": "TD",
    "lat": 12.10672,
    "lon": 15.0444,
    "population": 1359526
  },
  {
    "city_id": "1808963",
    "name": "Handan",
    "country": "CN",
    "lat": 36.60999,
    "lon": 114.48764,
    "population": 1358318
  },
  {
    "city_id": "1183460",
    "name": "Bannu",
    "country": "PK",
    "lat": 32.98527,
    "lon": 70.60403,
    "population": 1357890
  },
  {
    "city_id": "1786764",
    "name": "Yichang",
    "country": "CN",
    "lat": 30.71444,
    "lon": 111.28472,
    "population": 1350150
  },
  {
    "city_id": "1070940",
    "name": "Antananarivo",
    "country": "MG",
    "lat": -18.91368,
    "lon": 47.53613,
    "population": 1349501
  },
  {
    "city_id": "1808198",
    "name": "Heze",
    "country": "CN",
    "lat": 35.23929,
    "lon": 115.47358,
    "population": 1346717
  },
  {
    "city_id": "323777",
    "name": "Antalya",
    "country": "TR",
    "lat": 36.90812,
    "lon": 30.69556,
    "population": 1344000
  },
  {
    "city_id": "2293521",
    "name": "Abobo",
    "country": "CI",
    "lat": 5.41613,
    "lon": -4.0159,
    "population": 1340083
  },
  {
    "city_id": "1269300",
    "name": "Jamshedpur",
    "country": "IN",
    "lat": 22.80278,
    "lon": 86.18545,
    "population": 1339438
  },
  {
    "city_id": "2232593",
    "name": "Douala",
    "country": "CM",
    "lat": 4.04827,
    "lon": 9.70428,
    "population": 1338082
  },
  {
    "city_id": "99532",
    "name": "Basrah",
    "country": "IQ",
    "lat": 30.50852,
    "lon": 47.7804,
    "population": 1326564
  },
  {
    "city_id": "4684888",
    "name": "Dallas",
    "country": "US",
    "lat": 32.78306,
    "lon": -96.80667,
    "population": 1326087
  },
  {
    "city_id": "6940394",
    "name": "Saitama",
    "country": "JP",
    "lat": 35.90807,
    "lon": 139.65657,
    "population": 1324854
  },
  {
    "city_id": "1270926",
    "name": "Gorakhpur",
    "country": "IN",
    "lat": 29.44768,
    "lon": 75.67206,
    "population": 1324570
  },
  {
    "city_id": "2440485",
    "name": "Niamey",
    "country": "NE",
    "lat": 13.51366,
    "lon": 2.1098,
    "population": 1323691
  },
  {
    "city_id": "8533133",
    "name": "Liupanshui",
    "country": "CN",
    "lat": 26.59444,
    "lon": 104.83333,
    "population": 1320825
  },
  {
    "city_id": "1684308",
    "name": "Taguig",
    "country": "PH",
    "lat": 14.5243,
    "lon": 121.0792,
    "population": 1308085
  },
  {
    "city_id": "1801180",
    "name": "Maoming",
    "country": "CN",
    "lat": 21.66625,
    "lon": 110.91364,
    "population": 1307802
  },
  {
    "city_id": "5913490",
    "name": "Calgary",
    "country": "CA",
    "lat": 51.05011,
    "lon": -114.08529,
    "population": 1306784
  },
  {
    "city_id": "2210247",
    "name": "Tripoli",
    "country": "LY",
    "lat": 32.88743,
    "lon": 13.18733,
    "population": 1302947
  },
  {
    "city_id": "3946083",
    "name": "Callao",
    "country": "PE",
    "lat": -12.05162,
    "lon": -77.13452,
    "population": 1300000
  },
  {
    "city_id": "109223",
    "name": "Madinah",
    "country": "SA",
    "lat": 24.46861,
    "lon": 39.61417,
    "population": 1300000
  },
  {
    "city_id": "2220957",
    "name": "Yaound\u00e9",
    "country": "CM",
    "lat": 3.86667,
    "lon": 11.51667,
    "population": 1299369
  },
  {
    "city_id": "1797551",
    "name": "Qinzhou",
    "country": "CN",
    "lat": 21.98247,
    "lon": 108.65061,
    "population": 1296300
  },
  {
    "city_id": "1801934",
    "name": "Luohe",
    "country": "CN",
    "lat": 33.56394,
    "lon": 114.04272,
    "population": 1294974
  },
  {
    "city_id": "1790587",
    "name": "Xiangyang",
    "country": "CN",
    "lat": 32.0422,
    "lon": 112.14479,
    "population": 1294733
  },
  {
    "city_id": "1806408",
    "name": "Yangjiang",
    "country": "CN",
    "lat": 21.85563,
    "lon": 111.96272,
    "population": 1292987
  },
  {
    "city_id": "1786760",
    "name": "Yixing",
    "country": "CN",
    "lat": 31.36059,
    "lon": 119.82016,
    "population": 1285785
  },
  {
    "city_id": "1259652",
    "name": "Pimpri",
    "country": "IN",
    "lat": 18.62292,
    "lon": 73.80696,
    "population": 1284606
  },
  {
    "city_id": "1583992",
    "name": "Da Nang",
    "country": "VN",
    "lat": 16.06778,
    "lon": 108.22083,
    "population": 1276000
  },
  {
    "city_id": "250441",
    "name": "Amman",
    "country": "JO",
    "lat": 31.95522,
    "lon": 35.94503,
    "population": 1275857
  },
  {
    "city_id": "1723510",
    "name": "Budta",
    "country": "PH",
    "lat": 7.20417,
    "lon": 124.43972,
    "population": 1273715
  },
  {
    "city_id": "792680",
    "name": "Belgrade",
    "country": "RS",
    "lat": 44.80401,
    "lon": 20.46513,
    "population": 1273651
  },
  {
    "city_id": "1587923",
    "name": "Bi\u00ean H\u00f2a",
    "country": "VN",
    "lat": 10.94469,
    "lon": 106.82432,
    "population": 1272235
  },
  {
    "city_id": "1797798",
    "name": "Qingpu",
    "country": "CN",
    "lat": 31.15394,
    "lon": 121.11408,
    "population": 1271424
  },
  {
    "city_id": "3441575",
    "name": "Montevideo",
    "country": "UY",
    "lat": -34.90328,
    "lon": -56.18816,
    "population": 1270737
  },
  {
    "city_id": "1788046",
    "name": "Xuchang",
    "country": "CN",
    "lat": 34.03189,
    "lon": 113.86299,
    "population": 1265536
  },
  {
    "city_id": "1268295",
    "name": "Kaly\u0101n",
    "country": "IN",
    "lat": 19.2437,
    "lon": 73.13554,
    "population": 1262255
  },
  {
    "city_id": "1783745",
    "name": "Zigong",
    "country": "CN",
    "lat": 29.34162,
    "lon": 104.77689,
    "population": 1262064
  },
  {
    "city_id": "2867714",
    "name": "Munich",
    "country": "DE",
    "lat": 48.13743,
    "lon": 11.57549,
    "population": 1260391
  },
  {
    "city_id": "520555",
    "name": "Nizhniy Novgorod",
    "country": "RU",
    "lat": 56.32867,
    "lon": 44.00205,
    "population": 1259013
  },
  {
    "city_id": "1642548",
    "name": "Jepara",
    "country": "ID",
    "lat": -6.5924,
    "lon": 110.671,
    "population": 1257912
  },
  {
    "city_id": "1040652",
    "name": "Maputo",
    "country": "MZ",
    "lat": -25.96553,
    "lon": 32.58322,
    "population": 1254837
  },
  {
    "city_id": "10630003",
    "name": "Xuzhou",
    "country": "CN",
    "lat": 34.20442,
    "lon": 117.28386,
    "population": 1253991
  },
  {
    "city_id": "110336",
    "name": "Dammam",
    "country": "SA",
    "lat": 26.43442,
    "lon": 50.10326,
    "population": 1252523
  },
  {
    "city_id": "268743",
    "name": "Ra\u2019s Bayr\u016bt",
    "country": "LB",
    "lat": 33.9,
    "lon": 35.48333,
    "population": 1251739
  },
  {
    "city_id": "1799491",
    "name": "Neijiang",
    "country": "CN",
    "lat": 29.58354,
    "lon": 105.06216,
    "population": 1251095
  },
  {
    "city_id": "115019",
    "name": "Shiraz",
    "country": "IR",
    "lat": 29.61031,
    "lon": 52.53113,
    "population": 1249942
  },
  {
    "city_id": "1808316",
    "name": "Heshan",
    "country": "CN",
    "lat": 28.56938,
    "lon": 112.34733,
    "population": 1249807
  },
  {
    "city_id": "1272423",
    "name": "Dombivali",
    "country": "IN",
    "lat": 19.21667,
    "lon": 73.08333,
    "population": 1247327
  },
  {
    "city_id": "214481",
    "name": "Kananga",
    "country": "CD",
    "lat": -5.89624,
    "lon": 22.41659,
    "population": 1247168
  },
  {
    "city_id": "551487",
    "name": "Kazan",
    "country": "RU",
    "lat": 55.78874,
    "lon": 49.12214,
    "population": 1243500
  },
  {
    "city_id": "1805518",
    "name": "Jining",
    "country": "CN",
    "lat": 35.405,
    "lon": 116.58139,
    "population": 1241012
  },
  {
    "city_id": "3648522",
    "name": "Barquisimeto",
    "country": "VE",
    "lat": 10.0647,
    "lon": -69.35703,
    "population": 1240714
  },
  {
    "city_id": "349076",
    "name": "Shubr\u0101 al Khaymah",
    "country": "EG",
    "lat": 30.12511,
    "lon": 31.25053,
    "population": 1240289
  },
  {
    "city_id": "1798439",
    "name": "Putuo",
    "country": "CN",
    "lat": 31.251,
    "lon": 121.3897,
    "population": 1239100
  },
  {
    "city_id": "3718426",
    "name": "Port-au-Prince",
    "country": "HT",
    "lat": 18.54349,
    "lon": -72.33881,
    "population": 1234742
  },
  {
    "city_id": "1788534",
    "name": "Xinyang",
    "country": "CN",
    "lat": 32.12278,
    "lon": 114.06556,
    "population": 1230042
  },
  {
    "city_id": "1803834",
    "name": "Liaocheng",
    "country": "CN",
    "lat": 36.45064,
    "lon": 116.00247,
    "population": 1229768
  },
  {
    "city_id": "10942283",
    "name": "Jinzhong",
    "country": "CN",
    "lat": 37.68403,
    "lon": 112.75471,
    "population": 1226617
  },
  {
    "city_id": "1263214",
    "name": "Meerut",
    "country": "IN",
    "lat": 28.98002,
    "lon": 77.70636,
    "population": 1223184
  },
  {
    "city_id": "1253133",
    "name": "Vir\u0101r",
    "country": "IN",
    "lat": 19.45591,
    "lon": 72.81136,
    "population": 1222390
  },
  {
    "city_id": "1261162",
    "name": "Nowrangapur",
    "country": "IN",
    "lat": 19.23114,
    "lon": 82.54826,
    "population": 1220946
  },
  {
    "city_id": "94824",
    "name": "Karbala",
    "country": "IQ",
    "lat": 32.61603,
    "lon": 44.02488,
    "population": 1218732
  },
  {
    "city_id": "1808956",
    "name": "Changzhi",
    "country": "CN",
    "lat": 36.18389,
    "lon": 113.10528,
    "population": 1214940
  },
  {
    "city_id": "1792892",
    "name": "Tianshui",
    "country": "CN",
    "lat": 34.57952,
    "lon": 105.74238,
    "population": 1212791
  },
  {
    "city_id": "1787375",
    "name": "Yangpu",
    "country": "CN",
    "lat": 31.26193,
    "lon": 121.51904,
    "population": 1210800
  },
  {
    "city_id": "186301",
    "name": "Mombasa",
    "country": "KE",
    "lat": -4.05466,
    "lon": 39.66359,
    "population": 1208333
  },
  {
    "city_id": "1311874",
    "name": "Mandalay",
    "country": "MM",
    "lat": 21.97473,
    "lon": 96.08359,
    "population": 1208099
  },
  {
    "city_id": "1255634",
    "name": "Srinagar",
    "country": "IN",
    "lat": 34.08565,
    "lon": 74.80555,
    "population": 1206419
  },
  {
    "city_id": "3689147",
    "name": "Barranquilla",
    "country": "CO",
    "lat": 10.96854,
    "lon": -74.78132,
    "population": 1206319
  },
  {
    "city_id": "1508291",
    "name": "Chelyabinsk",
    "country": "RU",
    "lat": 55.1611,
    "lon": 61.42877,
    "population": 1202371
  },
  {
    "city_id": "3523349",
    "name": "M\u00e9rida",
    "country": "MX",
    "lat": 20.967,
    "lon": -89.62318,
    "population": 1201000
  },
  {
    "city_id": "1862415",
    "name": "Hiroshima",
    "country": "JP",
    "lat": 34.4,
    "lon": 132.45,
    "population": 1200754
  },
  {
    "city_id": "3492914",
    "name": "Santiago de los Caballeros",
    "country": "DO",
    "lat": 19.45036,
    "lon": -70.69085,
    "population": 1200000
  },
  {
    "city_id": "1518980",
    "name": "Shymkent",
    "country": "KZ",
    "lat": 42.30988,
    "lon": 69.60042,
    "population": 1200000
  },
  {
    "city_id": "1791636",
    "name": "Weinan",
    "country": "CN",
    "lat": 34.50355,
    "lon": 109.50891,
    "population": 1199290
  },
  {
    "city_id": "1271308",
    "name": "Gh\u0101zi\u0101b\u0101d",
    "country": "IN",
    "lat": 28.66535,
    "lon": 77.43915,
    "population": 1199191
  },
  {
    "city_id": "1039854",
    "name": "Matola",
    "country": "MZ",
    "lat": -25.96222,
    "lon": 32.45889,
    "population": 1198988
  },
  {
    "city_id": "1272979",
    "name": "Dhanbad",
    "country": "IN",
    "lat": 23.79759,
    "lon": 86.42992,
    "population": 1196214
  },
  {
    "city_id": "12747064",
    "name": "Hong Kong Island",
    "country": "HK",
    "lat": 22.26302,
    "lon": 114.18419,
    "population": 1195529
  },
  {
    "city_id": "2548885",
    "name": "Fes",
    "country": "MA",
    "lat": 34.03313,
    "lon": -5.00028,
    "population": 1191905
  },
  {
    "city_id": "1835553",
    "name": "Suwon",
    "country": "KR",
    "lat": 37.29111,
    "lon": 127.00889,
    "population": 1191063
  },
  {
    "city_id": "3514674",
    "name": "Gustavo Adolfo Madero",
    "country": "MX",
    "lat": 19.49392,
    "lon": -99.11075,
    "population": 1185772
  },
  {
    "city_id": "2377450",
    "name": "Nouakchott",
    "country": "MR",
    "lat": 18.08581,
    "lon": -15.9785,
    "population": 1184530
  },
  {
    "city_id": "212730",
    "name": "Kisangani",
    "country": "CD",
    "lat": 0.51528,
    "lon": 25.19099,
    "population": 1181788
  },
  {
    "city_id": "1805953",
    "name": "Jiaxing",
    "country": "CN",
    "lat": 30.7522,
    "lon": 120.75,
    "population": 1180000
  },
  {
    "city_id": "1278149",
    "name": "Aurangabad",
    "country": "IN",
    "lat": 19.87757,
    "lon": 75.34226,
    "population": 1175116
  },
  {
    "city_id": "1496153",
    "name": "Omsk",
    "country": "RU",
    "lat": 54.99244,
    "lon": 73.36859,
    "population": 1172070
  },
  {
    "city_id": "3461786",
    "name": "Guarulhos",
    "country": "BR",
    "lat": -23.46278,
    "lon": -46.53333,
    "population": 1169577
  },
  {
    "city_id": "1624917",
    "name": "Bandar Lampung",
    "country": "ID",
    "lat": -5.42917,
    "lon": 105.26111,
    "population": 1166066
  },
  {
    "city_id": "3067696",
    "name": "Prague",
    "country": "CZ",
    "lat": 50.08804,
    "lon": 14.42076,
    "population": 1165581
  },
  {
    "city_id": "1253405",
    "name": "Varanasi",
    "country": "IN",
    "lat": 25.31668,
    "lon": 83.01041,
    "population": 1164404
  },
  {
    "city_id": "6295587",
    "name": "Batam",
    "country": "ID",
    "lat": 1.14937,
    "lon": 104.02491,
    "population": 1164352
  },
  {
    "city_id": "1805179",
    "name": "Jiujiang",
    "country": "CN",
    "lat": 29.70475,
    "lon": 116.00206,
    "population": 1164268
  },
  {
    "city_id": "499099",
    "name": "Samara",
    "country": "RU",
    "lat": 53.20767,
    "lon": 50.13553,
    "population": 1163399
  },
  {
    "city_id": "2353151",
    "name": "Aba",
    "country": "NG",
    "lat": 5.10658,
    "lon": 7.36667,
    "population": 1160000
  },
  {
    "city_id": "1278710",
    "name": "Amritsar",
    "country": "IN",
    "lat": 31.62234,
    "lon": 74.87534,
    "population": 1159227
  },
  {
    "city_id": "2655603",
    "name": "Birmingham",
    "country": "GB",
    "lat": 52.48142,
    "lon": -1.89983,
    "population": 1157603
  },
  {
    "city_id": "2618425",
    "name": "Copenhagen",
    "country": "DK",
    "lat": 55.67594,
    "lon": 12.56553,
    "population": 1153615
  },
  {
    "city_id": "727011",
    "name": "Sofia",
    "country": "BG",
    "lat": 42.69751,
    "lon": 23.32415,
    "population": 1152556
  },
  {
    "city_id": "1785294",
    "name": "Anyang",
    "country": "CN",
    "lat": 36.096,
    "lon": 114.38278,
    "population": 1146839
  },
  {
    "city_id": "616052",
    "name": "Yerevan",
    "country": "AM",
    "lat": 40.17765,
    "lon": 44.5126,
    "population": 1144700
  },
  {
    "city_id": "13405906",
    "name": "Luohu District",
    "country": "CN",
    "lat": 22.54721,
    "lon": 114.13149,
    "population": 1143801
  },
  {
    "city_id": "1253184",
    "name": "Vijayawada",
    "country": "IN",
    "lat": 16.50745,
    "lon": 80.6466,
    "population": 1143232
  },
  {
    "city_id": "13608002",
    "name": "Fengxiang",
    "country": "CN",
    "lat": 30.85841,
    "lon": 121.46779,
    "population": 1140872
  },
  {
    "city_id": "1816373",
    "name": "Bijie",
    "country": "CN",
    "lat": 27.30193,
    "lon": 105.28627,
    "population": 1137383
  },
  {
    "city_id": "3995465",
    "name": "Monterrey",
    "country": "MX",
    "lat": 25.68435,
    "lon": -100.31721,
    "population": 1135512
  },
  {
    "city_id": "202061",
    "name": "Kigali",
    "country": "RW",
    "lat": -1.94995,
    "lon": 30.05885,
    "population": 1132686
  },
  {
    "city_id": "501175",
    "name": "Rostov-na-Donu",
    "country": "RU",
    "lat": 47.21997,
    "lon": 39.70769,
    "population": 1130305
  },
  {
    "city_id": "1783763",
    "name": "Zhuzhou",
    "country": "CN",
    "lat": 27.83333,
    "lon": 113.15,
    "population": 1129687
  },
  {
    "city_id": "1648473",
    "name": "Bogor",
    "country": "ID",
    "lat": -6.59444,
    "lon": 106.78917,
    "population": 1127408
  },
  {
    "city_id": "1978681",
    "name": "Malingao",
    "country": "PH",
    "lat": 7.16083,
    "lon": 124.475,
    "population": 1121974
  },
  {
    "city_id": "2244322",
    "name": "Touba",
    "country": "SN",
    "lat": 14.86229,
    "lon": -15.87532,
    "population": 1120824
  },
  {
    "city_id": "479561",
    "name": "Ufa",
    "country": "RU",
    "lat": 54.74306,
    "lon": 55.96779,
    "population": 1120547
  },
  {
    "city_id": "1258526",
    "name": "Ranchi",
    "country": "IN",
    "lat": 23.34316,
    "lon": 85.3094,
    "population": 1120374
  },
  {
    "city_id": "1787858",
    "name": "Shangrao",
    "country": "CN",
    "lat": 28.45179,
    "lon": 117.94287,
    "population": 1116486
  },
  {
    "city_id": "927967",
    "name": "Lilongwe",
    "country": "MW",
    "lat": -13.96692,
    "lon": 33.78725,
    "population": 1115815
  },
  {
    "city_id": "1807700",
    "name": "Huaibei",
    "country": "CN",
    "lat": 33.97444,
    "lon": 116.79167,
    "population": 1113321
  },
  {
    "city_id": "2331447",
    "name": "Maiduguri",
    "country": "NG",
    "lat": 11.84692,
    "lon": 13.15712,
    "population": 1110000
  },
  {
    "city_id": "1787957",
    "name": "Xuhui",
    "country": "CN",
    "lat": 31.19594,
    "lon": 121.44709,
    "population": 1109800
  },
  {
    "city_id": "1800818",
    "name": "Meishan",
    "country": "CN",
    "lat": 30.04392,
    "lon": 103.83696,
    "population": 1107742
  },
  {
    "city_id": "152224",
    "name": "Mwanza",
    "country": "TZ",
    "lat": -2.51667,
    "lon": 32.9,
    "population": 1104521
  },
  {
    "city_id": "2111149",
    "name": "Sendai",
    "country": "JP",
    "lat": 38.26667,
    "lon": 140.86667,
    "population": 1096704
  },
  {
    "city_id": "1833747",
    "name": "Ulsan",
    "country": "KR",
    "lat": 35.53722,
    "lon": 129.31667,
    "population": 1095014
  },
  {
    "city_id": "1502026",
    "name": "Krasnoyarsk",
    "country": "RU",
    "lat": 56.03742,
    "lon": 92.93136,
    "population": 1090811
  },
  {
    "city_id": "1810820",
    "name": "Fuzhou",
    "country": "CN",
    "lat": 27.95999,
    "lon": 116.33333,
    "population": 1089888
  },
  {
    "city_id": "1809532",
    "name": "Guigang",
    "country": "CN",
    "lat": 23.11603,
    "lon": 109.59472,
    "population": 1086327
  },
  {
    "city_id": "1631761",
    "name": "Pekanbaru",
    "country": "ID",
    "lat": 0.51667,
    "lon": 101.44167,
    "population": 1085000
  },
  {
    "city_id": "3143244",
    "name": "Oslo",
    "country": "NO",
    "lat": 59.91273,
    "lon": 10.74609,
    "population": 1082575
  },
  {
    "city_id": "1269633",
    "name": "Jabalpur",
    "country": "IN",
    "lat": 23.16697,
    "lon": 79.95006,
    "population": 1081677
  },
  {
    "city_id": "2337639",
    "name": "Ilorin",
    "country": "NG",
    "lat": 8.49664,
    "lon": 4.54214,
    "population": 1080000
  },
  {
    "city_id": "415189",
    "name": "Aden",
    "country": "YE",
    "lat": 12.77957,
    "lon": 45.03852,
    "population": 1079670
  },
  {
    "city_id": "3530589",
    "name": "Ciudad Nezahualcoyotl",
    "country": "MX",
    "lat": 19.40061,
    "lon": -99.01483,
    "population": 1077208
  },
  {
    "city_id": "1808370",
    "name": "Hengyang",
    "country": "CN",
    "lat": 26.88946,
    "lon": 112.61888,
    "population": 1075516
  },
  {
    "city_id": "1278994",
    "name": "Prayagraj",
    "country": "IN",
    "lat": 25.44478,
    "lon": 81.84322,
    "population": 1073438
  },
  {
    "city_id": "1253102",
    "name": "Visakhapatnam",
    "country": "IN",
    "lat": 17.68009,
    "lon": 83.20161,
    "population": 1063178
  },
  {
    "city_id": "1842485",
    "name": "Goyang-si",
    "country": "KR",
    "lat": 37.65639,
    "lon": 126.835,
    "population": 1061752
  },
  {
    "city_id": "1785781",
    "name": "Yulin",
    "country": "CN",
    "lat": 22.6305,
    "lon": 110.14686,
    "population": 1056743
  },
  {
    "city_id": "1268865",
    "name": "Jodhpur",
    "country": "IN",
    "lat": 26.26841,
    "lon": 73.00594,
    "population": 1056191
  },
  {
    "city_id": "1270583",
    "name": "Gwalior",
    "country": "IN",
    "lat": 26.22983,
    "lon": 78.17337,
    "population": 1054420
  },
  {
    "city_id": "1805540",
    "name": "Jingzhou",
    "country": "CN",
    "lat": 30.35028,
    "lon": 112.19028,
    "population": 1052282
  },
  {
    "city_id": "964420",
    "name": "Gqeberha",
    "country": "ZA",
    "lat": -33.96109,
    "lon": 25.61494,
    "population": 1050078
  },
  {
    "city_id": "611717",
    "name": "Tbilisi",
    "country": "GE",
    "lat": 41.69143,
    "lon": 44.83412,
    "population": 1049498
  },
  {
    "city_id": "472045",
    "name": "Voronezh",
    "country": "RU",
    "lat": 51.66833,
    "lon": 39.19204,
    "population": 1047549
  },
  {
    "city_id": "1788572",
    "name": "Xinxiang",
    "country": "CN",
    "lat": 35.19033,
    "lon": 113.80151,
    "population": 1047088
  },
  {
    "city_id": "1786746",
    "name": "Yichun",
    "country": "CN",
    "lat": 27.83333,
    "lon": 114.4,
    "population": 1045952
  },
  {
    "city_id": "2322911",
    "name": "Sokoto",
    "country": "NG",
    "lat": 13.06269,
    "lon": 5.24322,
    "population": 1040000
  },
  {
    "city_id": "2335953",
    "name": "Jos",
    "country": "NG",
    "lat": 9.92849,
    "lon": 8.89212,
    "population": 1040000
  },
  {
    "city_id": "2530335",
    "name": "Tangier",
    "country": "MA",
    "lat": 35.76727,
    "lon": -5.79975,
    "population": 1035141
  },
  {
    "city_id": "1254745",
    "name": "Teni",
    "country": "IN",
    "lat": 10.01115,
    "lon": 77.47772,
    "population": 1034724
  },
  {
    "city_id": "1790353",
    "name": "Xianyang",
    "country": "CN",
    "lat": 34.33778,
    "lon": 108.70261,
    "population": 1034081
  },
  {
    "city_id": "3996069",
    "name": "Mexicali",
    "country": "MX",
    "lat": 32.62781,
    "lon": -115.45446,
    "population": 1032686
  },
  {
    "city_id": "2255414",
    "name": "Pointe-Noire",
    "country": "CG",
    "lat": -4.77609,
    "lon": 11.86352,
    "population": 1032000
  },
  {
    "city_id": "3395981",
    "name": "Macei\u00f3",
    "country": "BR",
    "lat": -9.66583,
    "lon": -35.73528,
    "population": 1031597
  },
  {
    "city_id": "3467865",
    "name": "Campinas",
    "country": "BR",
    "lat": -22.90556,
    "lon": -47.06083,
    "population": 1031554
  },
  {
    "city_id": "1796556",
    "name": "Sanya",
    "country": "CN",
    "lat": 18.25435,
    "lon": 109.50947,
    "population": 1031396
  },
  {
    "city_id": "1185188",
    "name": "Rangpur",
    "country": "BD",
    "lat": 25.74664,
    "lon": 89.25166,
    "population": 1031388
  },
  {
    "city_id": "94787",
    "name": "Kirkuk",
    "country": "IQ",
    "lat": 35.46806,
    "lon": 44.39222,
    "population": 1031000
  },
  {
    "city_id": "1185186",
    "name": "Comilla",
    "country": "BD",
    "lat": 23.46186,
    "lon": 91.18503,
    "population": 1030000
  },
  {
    "city_id": "1795874",
    "name": "Shaoguan",
    "country": "CN",
    "lat": 24.8,
    "lon": 113.58333,
    "population": 1028460
  },
  {
    "city_id": "1270396",
    "name": "Howrah",
    "country": "IN",
    "lat": 22.57688,
    "lon": 88.31857,
    "population": 1027672
  },
  {
    "city_id": "1258980",
    "name": "Raipur",
    "country": "IN",
    "lat": 21.23333,
    "lon": 81.63333,
    "population": 1027264
  },
  {
    "city_id": "1846326",
    "name": "Changwon",
    "country": "KR",
    "lat": 35.22806,
    "lon": 128.68111,
    "population": 1025702
  },
  {
    "city_id": "1802276",
    "name": "Longyan",
    "country": "CN",
    "lat": 25.07485,
    "lon": 117.01775,
    "population": 1025087
  },
  {
    "city_id": "2964574",
    "name": "Dublin",
    "country": "IE",
    "lat": 53.33306,
    "lon": -6.24889,
    "population": 1024027
  },
  {
    "city_id": "1254388",
    "name": "Tiruchirappalli",
    "country": "IN",
    "lat": 10.8155,
    "lon": 78.69651,
    "population": 1022518
  },
  {
    "city_id": "1786217",
    "name": "Yongzhou",
    "country": "CN",
    "lat": 26.42389,
    "lon": 111.61306,
    "population": 1020715
  },
  {
    "city_id": "2800866",
    "name": "Brussels",
    "country": "BE",
    "lat": 50.85045,
    "lon": 4.34878,
    "population": 1019022
  },
  {
    "city_id": "1679432",
    "name": "Zamboanga",
    "country": "PH",
    "lat": 6.91028,
    "lon": 122.07389,
    "population": 1018849
  },
  {
    "city_id": "6094817",
    "name": "Ottawa",
    "country": "CA",
    "lat": 45.41117,
    "lon": -75.69812,
    "population": 1017449
  },
  {
    "city_id": "1806535",
    "name": "Huzhou",
    "country": "CN",
    "lat": 30.8703,
    "lon": 120.0933,
    "population": 1015937
  },
  {
    "city_id": "698740",
    "name": "Odesa",
    "country": "UA",
    "lat": 46.48572,
    "lon": 30.74383,
    "population": 1015826
  },
  {
    "city_id": "472757",
    "name": "Volgograd",
    "country": "RU",
    "lat": 48.71378,
    "lon": 44.4976,
    "population": 1013533
  },
  {
    "city_id": "379251",
    "name": "Khartoum North",
    "country": "SD",
    "lat": 15.64925,
    "lon": 32.53458,
    "population": 1012211
  },
  {
    "city_id": "5946768",
    "name": "Edmonton",
    "country": "CA",
    "lat": 53.55014,
    "lon": -113.46871,
    "population": 1010899
  },
  {
    "city_id": "1803936",
    "name": "Wuwei",
    "country": "CN",
    "lat": 37.92672,
    "lon": 102.63202,
    "population": 1010295
  },
  {
    "city_id": "4160021",
    "name": "Jacksonville",
    "country": "US",
    "lat": 30.33218,
    "lon": -81.65565,
    "population": 1009833
  },
  {
    "city_id": "3947322",
    "name": "Arequipa",
    "country": "PE",
    "lat": -16.39899,
    "lon": -71.53747,
    "population": 1008290
  },
  {
    "city_id": "4691930",
    "name": "Fort Worth",
    "country": "US",
    "lat": 32.72541,
    "lon": -97.32085,
    "population": 1008106
  },
  {
    "city_id": "1808857",
    "name": "Hanzhong",
    "country": "CN",
    "lat": 33.07507,
    "lon": 107.02214,
    "population": 1006557
  },
  {
    "city_id": "7576887",
    "name": "Hezhou",
    "country": "CN",
    "lat": 24.40357,
    "lon": 111.56675,
    "population": 1005490
  },
  {
    "city_id": "3046446",
    "name": "Pest",
    "country": "HU",
    "lat": 47.5,
    "lon": 19.08333,
    "population": 1001748
  },
  {
    "city_id": "1266049",
    "name": "Kota",
    "country": "IN",
    "lat": 25.18254,
    "lon": 75.83907,
    "population": 1001694
  },
  {
    "city_id": "7602670",
    "name": "Zhu Cheng City",
    "country": "CN",
    "lat": 35.99502,
    "lon": 119.40259,
    "population": 1000000
  },
  {
    "city_id": "6943660",
    "name": "Shivaji Nagar",
    "country": "IN",
    "lat": 18.53017,
    "lon": 73.85263,
    "population": 1000000
  },
  {
    "city_id": "1812101",
    "name": "Dongying",
    "country": "CN",
    "lat": 37.46271,
    "lon": 118.49165,
    "population": 998968
  },
  {
    "city_id": "1801640",
    "name": "Luzhou",
    "country": "CN",
    "lat": 28.8903,
    "lon": 105.42575,
    "population": 998900
  },
  {
    "city_id": "5392171",
    "name": "San Jose",
    "country": "US",
    "lat": 37.33939,
    "lon": -121.89496,
    "population": 997368
  },
  {
    "city_id": "1256436",
    "name": "Sholapur",
    "country": "IN",
    "lat": 17.67152,
    "lon": 75.91044,
    "population": 997281
  },
  {
    "city_id": "2542997",
    "name": "Marrakesh",
    "country": "MA",
    "lat": 31.63416,
    "lon": -7.99994,
    "population": 995871
  },
  {
    "city_id": "3598132",
    "name": "Guatemala City",
    "country": "GT",
    "lat": 14.64072,
    "lon": -90.51327,
    "population": 994938
  },
  {
    "city_id": "1800779",
    "name": "Meizhou",
    "country": "CN",
    "lat": 24.28859,
    "lon": 116.11768,
    "population": 992351
  },
  {
    "city_id": "1927639",
    "name": "Yueyang",
    "country": "CN",
    "lat": 29.37455,
    "lon": 113.09481,
    "population": 991465
  },
  {
    "city_id": "1804591",
    "name": "Laiwu",
    "country": "CN",
    "lat": 36.19278,
    "lon": 117.65694,
    "population": 989535
  },
  {
    "city_id": "2038300",
    "name": "Benxi",
    "country": "CN",
    "lat": 41.28861,
    "lon": 123.765,
    "population": 987717
  },
  {
    "city_id": "511196",
    "name": "Perm",
    "country": "RU",
    "lat": 58.01046,
    "lon": 56.25017,
    "population": 982419
  },
  {
    "city_id": "2317765",
    "name": "Zaria",
    "country": "NG",
    "lat": 11.11128,
    "lon": 7.7227,
    "population": 980000
  },
  {
    "city_id": "2113015",
    "name": "Chiba",
    "country": "JP",
    "lat": 35.6,
    "lon": 140.11667,
    "population": 979768
  },
  {
    "city_id": "1798827",
    "name": "Pingdingshan",
    "country": "CN",
    "lat": 33.73091,
    "lon": 113.31554,
    "population": 979130
  },
  {
    "city_id": "3645528",
    "name": "Ciudad Guayana",
    "country": "VE",
    "lat": 8.35122,
    "lon": -62.64102,
    "population": 978202
  },
  {
    "city_id": "1166000",
    "name": "Sargodha",
    "country": "PK",
    "lat": 32.08586,
    "lon": 72.67418,
    "population": 975886
  },
  {
    "city_id": "4671654",
    "name": "Austin",
    "country": "US",
    "lat": 30.26715,
    "lon": -97.74306,
    "population": 974447
  },
  {
    "city_id": "3617763",
    "name": "Managua",
    "country": "NI",
    "lat": 12.13282,
    "lon": -86.2504,
    "population": 973087
  },
  {
    "city_id": "1816440",
    "name": "Bengbu",
    "country": "CN",
    "lat": 32.94083,
    "lon": 117.36083,
    "population": 972784
  },
  {
    "city_id": "2537763",
    "name": "Sal\u00e9",
    "country": "MA",
    "lat": 34.0531,
    "lon": -6.79846,
    "population": 972299
  },
  {
    "city_id": "281184",
    "name": "Jerusalem",
    "country": "IL",
    "lat": 31.76904,
    "lon": 35.21633,
    "population": 971800
  },
  {
    "city_id": "1274746",
    "name": "Chandigarh",
    "country": "IN",
    "lat": 30.73629,
    "lon": 76.7884,
    "population": 970602
  },
  {
    "city_id": "709930",
    "name": "Dnipro",
    "country": "UA",
    "lat": 48.46664,
    "lon": 35.04066,
    "population": 968502
  },
  {
    "city_id": "1717512",
    "name": "Cebu City",
    "country": "PH",
    "lat": 10.31672,
    "lon": 123.89071,
    "population": 965332
  },
  {
    "city_id": "1796823",
    "name": "Sanhe",
    "country": "CN",
    "lat": 39.98049,
    "lon": 117.06887,
    "population": 965075
  },
  {
    "city_id": "2886242",
    "name": "K\u00f6ln",
    "country": "DE",
    "lat": 50.93333,
    "lon": 6.95,
    "population": 963395
  },
  {
    "city_id": "1254348",
    "name": "Tiruppur",
    "country": "IN",
    "lat": 11.11541,
    "lon": 77.35456,
    "population": 963173
  },
  {
    "city_id": "1271476",
    "name": "Guwahati",
    "country": "IN",
    "lat": 26.1844,
    "lon": 91.7458,
    "population": 962334
  },
  {
    "city_id": "1790492",
    "name": "Xiangtan",
    "country": "CN",
    "lat": 27.85,
    "lon": 112.9,
    "population": 959303
  },
  {
    "city_id": "1803567",
    "name": "Linfen",
    "country": "CN",
    "lat": 36.08889,
    "lon": 111.51889,
    "population": 959198
  },
  {
    "city_id": "1931681",
    "name": "Victoria",
    "country": "HK",
    "lat": 22.2875,
    "lon": 114.14417,
    "population": 956800
  },
  {
    "city_id": "1784642",
    "name": "Zhenjiang",
    "country": "CN",
    "lat": 32.21086,
    "lon": 119.45508,
    "population": 950516
  },
  {
    "city_id": "2343279",
    "name": "Enugu",
    "country": "NG",
    "lat": 6.44132,
    "lon": 7.49883,
    "population": 950000
  },
  {
    "city_id": "3838583",
    "name": "Rosario",
    "country": "AR",
    "lat": -32.94682,
    "lon": -60.63932,
    "population": 948312
  },
  {
    "city_id": "101760",
    "name": "Sul\u0163\u0101nah",
    "country": "SA",
    "lat": 24.49258,
    "lon": 39.58572,
    "population": 946697
  },
  {
    "city_id": "2036662",
    "name": "Huludao",
    "country": "CN",
    "lat": 40.75243,
    "lon": 120.83552,
    "population": 944495
  },
  {
    "city_id": "1269920",
    "name": "Hubballi",
    "country": "IN",
    "lat": 15.34776,
    "lon": 75.13378,
    "population": 943788
  },
  {
    "city_id": "1859307",
    "name": "Kitakyushu",
    "country": "JP",
    "lat": 33.85181,
    "lon": 130.85034,
    "population": 940978
  },
  {
    "city_id": "70225",
    "name": "Taiz",
    "country": "YE",
    "lat": 13.57952,
    "lon": 44.02091,
    "population": 940600
  },
  {
    "city_id": "11790342",
    "name": "Setagaya",
    "country": "JP",
    "lat": 35.64188,
    "lon": 139.64715,
    "population": 940071
  },
  {
    "city_id": "3489854",
    "name": "Kingston",
    "country": "JM",
    "lat": 17.99702,
    "lon": -76.79358,
    "population": 937700
  },
  {
    "city_id": "1805701",
    "name": "Jing\u2019an",
    "country": "CN",
    "lat": 31.22,
    "lon": 121.41583,
    "population": 936500
  },
  {
    "city_id": "1281673",
    "name": "Baoshan",
    "country": "CN",
    "lat": 25.11626,
    "lon": 99.16366,
    "population": 935618
  },
  {
    "city_id": "1797063",
    "name": "Rui\u2019an",
    "country": "CN",
    "lat": 27.77605,
    "lon": 120.65859,
    "population": 927383
  },
  {
    "city_id": "4014338",
    "name": "Chihuahua",
    "country": "MX",
    "lat": 28.63528,
    "lon": -106.08889,
    "population": 925762
  },
  {
    "city_id": "6611854",
    "name": "Nay Pyi Taw",
    "country": "MM",
    "lat": 19.745,
    "lon": 96.12972,
    "population": 925000
  },
  {
    "city_id": "1262321",
    "name": "Mysuru",
    "country": "IN",
    "lat": 12.29791,
    "lon": 76.63925,
    "population": 920550
  },
  {
    "city_id": "3691175",
    "name": "Trujillo",
    "country": "PE",
    "lat": -8.11599,
    "lon": -79.02998,
    "population": 919899
  },
  {
    "city_id": "1257629",
    "name": "Salem",
    "country": "IN",
    "lat": 11.65376,
    "lon": 78.15538,
    "population": 917414
  },
  {
    "city_id": "3388368",
    "name": "S\u00e3o Lu\u00eds",
    "country": "BR",
    "lat": -2.52972,
    "lon": -44.30278,
    "population": 917237
  },
  {
    "city_id": "1897000",
    "name": "Seongnam-si",
    "country": "KR",
    "lat": 37.43861,
    "lon": 127.13778,
    "population": 914832
  },
  {
    "city_id": "3687238",
    "name": "Cartagena",
    "country": "CO",
    "lat": 10.39817,
    "lon": -75.49328,
    "population": 914552
  },
  {
    "city_id": "1730501",
    "name": "Antipolo",
    "country": "PH",
    "lat": 14.62578,
    "lon": 121.12251,
    "population": 913712
  },
  {
    "city_id": "4509177",
    "name": "Columbus",
    "country": "US",
    "lat": 39.96118,
    "lon": -82.99879,
    "population": 913175
  },
  {
    "city_id": "1164909",
    "name": "Sialkot",
    "country": "PK",
    "lat": 32.49268,
    "lon": 74.53134,
    "population": 911817
  },
  {
    "city_id": "4460243",
    "name": "Charlotte",
    "country": "US",
    "lat": 35.22709,
    "lon": -80.84313,
    "population": 911311
  },
  {
    "city_id": "1804609",
    "name": "Laibin",
    "country": "CN",
    "lat": 23.74743,
    "lon": 109.22222,
    "population": 910282
  },
  {
    "city_id": "2319133",
    "name": "Warri",
    "country": "NG",
    "lat": 5.51737,
    "lon": 5.75006,
    "population": 910000
  },
  {
    "city_id": "3172394",
    "name": "Naples",
    "country": "IT",
    "lat": 40.85216,
    "lon": 14.26811,
    "population": 909048
  },
  {
    "city_id": "1633419",
    "name": "Padang",
    "country": "ID",
    "lat": -0.94924,
    "lon": 100.35427,
    "population": 909040
  },
  {
    "city_id": "1790254",
    "name": "Xiaogan",
    "country": "CN",
    "lat": 30.92689,
    "lon": 113.92221,
    "population": 908266
  },
  {
    "city_id": "3467747",
    "name": "Campo Grande",
    "country": "BR",
    "lat": -20.44278,
    "lon": -54.64639,
    "population": 906092
  },
  {
    "city_id": "1783683",
    "name": "Ziyang",
    "country": "CN",
    "lat": 30.12108,
    "lon": 104.64811,
    "population": 905729
  },
  {
    "city_id": "2362344",
    "name": "Bobo-Dioulasso",
    "country": "BF",
    "lat": 11.18064,
    "lon": -4.29489,
    "population": 904920
  },
  {
    "city_id": "1183880",
    "name": "Bahawalpur",
    "country": "PK",
    "lat": 29.39779,
    "lon": 71.6752,
    "population": 903795
  },
  {
    "city_id": "1797264",
    "name": "Quzhou",
    "country": "CN",
    "lat": 28.95944,
    "lon": 118.86861,
    "population": 902767
  },
  {
    "city_id": "931755",
    "name": "Blantyre",
    "country": "MW",
    "lat": -15.78499,
    "lon": 35.00854,
    "population": 902588
  },
  {
    "city_id": "709717",
    "name": "Donetsk",
    "country": "UA",
    "lat": 48.023,
    "lon": 37.80224,
    "population": 901645
  },
  {
    "city_id": "100077",
    "name": "Ab\u016b Ghurayb",
    "country": "IQ",
    "lat": 33.30563,
    "lon": 44.18477,
    "population": 900000
  },
  {
    "city_id": "119208",
    "name": "Qom",
    "country": "IR",
    "lat": 34.6401,
    "lon": 50.8764,
    "population": 900000
  },
  {
    "city_id": "1528675",
    "name": "Bishkek",
    "country": "KG",
    "lat": 42.87,
    "lon": 74.59,
    "population": 900000
  },
  {
    "city_id": "1785453",
    "name": "Zaozhuang",
    "country": "CN",
    "lat": 34.86472,
    "lon": 117.55417,
    "population": 899753
  },
  {
    "city_id": "542420",
    "name": "Krasnodar",
    "country": "RU",
    "lat": 45.04534,
    "lon": 38.98178,
    "population": 899541
  },
  {
    "city_id": "3394023",
    "name": "Natal",
    "country": "BR",
    "lat": -5.795,
    "lon": -35.20944,
    "population": 896708
  },
  {
    "city_id": "1798654",
    "name": "Pingxiang",
    "country": "CN",
    "lat": 27.61672,
    "lon": 113.85353,
    "population": 893550
  },
  {
    "city_id": "3531673",
    "name": "Canc\u00fan",
    "country": "MX",
    "lat": 21.17429,
    "lon": -86.84656,
    "population": 888797
  },
  {
    "city_id": "4259418",
    "name": "Indianapolis",
    "country": "US",
    "lat": 39.76838,
    "lon": -86.15804,
    "population": 887642
  },
  {
    "city_id": "1270642",
    "name": "Gurugram",
    "country": "IN",
    "lat": 28.4601,
    "lon": 77.02635,
    "population": 886519
  },
  {
    "city_id": "1275817",
    "name": "Bhubaneswar",
    "country": "IN",
    "lat": 20.27241,
    "lon": 85.83385,
    "population": 885363
  },
  {
    "city_id": "1886762",
    "name": "Zhoushan",
    "country": "CN",
    "lat": 29.98869,
    "lon": 122.20488,
    "population": 882932
  },
  {
    "city_id": "2035265",
    "name": "Qiqihar",
    "country": "CN",
    "lat": 47.33922,
    "lon": 123.96154,
    "population": 882364
  },
  {
    "city_id": "98463",
    "name": "Sulaymaniyah",
    "country": "IQ",
    "lat": 35.56496,
    "lon": 45.4329,
    "population": 878146
  },
  {
    "city_id": "2995469",
    "name": "Marseille",
    "country": "FR",
    "lat": 43.29695,
    "lon": 5.38107,
    "population": 877215
  },
  {
    "city_id": "1802940",
    "name": "Puning",
    "country": "CN",
    "lat": 23.31072,
    "lon": 116.16869,
    "population": 874954
  },
  {
    "city_id": "2246678",
    "name": "Pikine",
    "country": "SN",
    "lat": 14.76457,
    "lon": -17.39071,
    "population": 874062
  },
  {
    "city_id": "1275901",
    "name": "Bhiwandi",
    "country": "IN",
    "lat": 19.30023,
    "lon": 73.05881,
    "population": 874032
  },
  {
    "city_id": "954013",
    "name": "Soshanguve",
    "country": "ZA",
    "lat": -25.47288,
    "lon": 28.09919,
    "population": 872309
  },
  {
    "city_id": "3386496",
    "name": "Teresina",
    "country": "BR",
    "lat": -5.08917,
    "lon": -42.80194,
    "population": 871126
  },
  {
    "city_id": "1789065",
    "name": "Ankang",
    "country": "CN",
    "lat": 32.68,
    "lon": 109.01722,
    "population": 870126
  },
  {
    "city_id": "1268782",
    "name": "Jalandhar",
    "country": "IN",
    "lat": 31.32556,
    "lon": 75.57917,
    "population": 868929
  },
  {
    "city_id": "2747891",
    "name": "Rotterdam",
    "country": "NL",
    "lat": 51.9225,
    "lon": 4.47917,
    "population": 868135
  },
  {
    "city_id": "1804540",
    "name": "Langfang",
    "country": "CN",
    "lat": 39.52079,
    "lon": 116.71471,
    "population": 868066
  },
  {
    "city_id": "1805987",
    "name": "Jiaozuo",
    "country": "CN",
    "lat": 35.23925,
    "lon": 113.23914,
    "population": 865413
  },
  {
    "city_id": "12069922",
    "name": "Rohini",
    "country": "IN",
    "lat": 28.74322,
    "lon": 77.06778,
    "population": 860000
  },
  {
    "city_id": "1791748",
    "name": "Wanxian",
    "country": "CN",
    "lat": 30.81601,
    "lon": 108.37407,
    "population": 859662
  },
  {
    "city_id": "1799194",
    "name": "Guang\u2019an",
    "country": "CN",
    "lat": 30.47413,
    "lon": 106.63696,
    "population": 858159
  },
  {
    "city_id": "1732752",
    "name": "Johor Bahru",
    "country": "MY",
    "lat": 1.4655,
    "lon": 103.7578,
    "population": 858118
  },
  {
    "city_id": "1845604",
    "name": "Cheongju-si",
    "country": "KR",
    "lat": 36.63722,
    "lon": 127.48972,
    "population": 853938
  },
  {
    "city_id": "7290466",
    "name": "Pasig City",
    "country": "PH",
    "lat": 14.58691,
    "lon": 121.0614,
    "population": 853050
  },
  {
    "city_id": "12501153",
    "name": "Kanayannur",
    "country": "IN",
    "lat": 9.96667,
    "lon": 76.26667,
    "population": 851406
  },
  {
    "city_id": "3600949",
    "name": "Tegucigalpa",
    "country": "HN",
    "lat": 14.0818,
    "lon": -87.20681,
    "population": 850848
  },
  {
    "city_id": "1838716",
    "name": "Bucheon-si",
    "country": "KR",
    "lat": 37.49889,
    "lon": 126.78306,
    "population": 850731
  },
  {
    "city_id": "1566166",
    "name": "Thanh H\u00f3a",
    "country": "VN",
    "lat": 19.8,
    "lon": 105.76667,
    "population": 850000
  },
  {
    "city_id": "3165524",
    "name": "Turin",
    "country": "IT",
    "lat": 45.07049,
    "lon": 7.68682,
    "population": 847287
  },
  {
    "city_id": "1636722",
    "name": "Malang",
    "country": "ID",
    "lat": -7.9797,
    "lon": 112.6304,
    "population": 847182
  },
  {
    "city_id": "292913",
    "name": "Al Ain City",
    "country": "AE",
    "lat": 24.19167,
    "lon": 55.76056,
    "population": 846747
  },
  {
    "city_id": "2399697",
    "name": "Libreville",
    "country": "GA",
    "lat": 0.39241,
    "lon": 9.45356,
    "population": 846090
  },
  {
    "city_id": "498677",
    "name": "Saratov",
    "country": "RU",
    "lat": 51.54048,
    "lon": 45.9901,
    "population": 844858
  },
  {
    "city_id": "2028462",
    "name": "Ulan Bator",
    "country": "MN",
    "lat": 47.90771,
    "lon": 106.88324,
    "population": 844818
  },
  {
    "city_id": "1791673",
    "name": "Weihai",
    "country": "CN",
    "lat": 37.50914,
    "lon": 122.11356,
    "population": 844310
  },
  {
    "city_id": "1821940",
    "name": "Takeo",
    "country": "KH",
    "lat": 10.99081,
    "lon": 104.78498,
    "population": 843931
  },
  {
    "city_id": "3919968",
    "name": "Cochabamba",
    "country": "BO",
    "lat": -17.38195,
    "lon": -66.15995,
    "population": 841276
  },
  {
    "city_id": "144448",
    "name": "Ahvaz",
    "country": "IR",
    "lat": 31.31901,
    "lon": 48.6842,
    "population": 841145
  },
  {
    "city_id": "1651944",
    "name": "Vientiane",
    "country": "LA",
    "lat": 17.96667,
    "lon": 102.6,
    "population": 840940
  },
  {
    "city_id": "1785412",
    "name": "Zhabei",
    "country": "CN",
    "lat": 31.25861,
    "lon": 121.45972,
    "population": 840000
  },
  {
    "city_id": "1788508",
    "name": "Xinyu",
    "country": "CN",
    "lat": 27.80429,
    "lon": 114.93335,
    "population": 839488
  },
  {
    "city_id": "965301",
    "name": "Pietermaritzburg",
    "country": "ZA",
    "lat": -29.61679,
    "lon": 30.39278,
    "population": 839327
  },
  {
    "city_id": "1786770",
    "name": "Yibin",
    "country": "CN",
    "lat": 28.7593,
    "lon": 104.63994,
    "population": 836340
  },
  {
    "city_id": "3522790",
    "name": "Naucalpan de Ju\u00e1rez",
    "country": "MX",
    "lat": 19.47851,
    "lon": -99.23963,
    "population": 834434
  },
  {
    "city_id": "1771023",
    "name": "Kampung Baru Subang",
    "country": "MY",
    "lat": 3.15,
    "lon": 101.53333,
    "population": 833571
  },